{"type":"Topology","objects":{"districts":{"type":"GeometryCollection","geometries":[{"type":"Point","id":4819700,"properties":{"state":"Texas","score":99,"leaid":4819700,"name":"Fort Worth Independent School District","stabb":"TX"},"coordinates":[6937,1716]},{"type":"Point","id":4823640,"properties":{"state":"Texas","score":99,"leaid":4823640,"name":"Houston Independent School District","stabb":"TX"},"coordinates":[7131,952]},{"type":"Point","id":4825170,"properties":{"state":"Texas","score":99,"leaid":4825170,"name":"Katy Independent School District","stabb":"TX"},"coordinates":[7092,947]},{"type":"Point","id":4825740,"properties":{"state":"Texas","score":99,"leaid":4825740,"name":"Klein Independent School District","stabb":"TX"},"coordinates":[7123,1016]},{"type":"Point","id":4827300,"properties":{"state":"Texas","score":99,"leaid":4827300,"name":"Lewisville Independent School District","stabb":"TX"},"coordinates":[6972,1785]},{"type":"Point","id":4835100,"properties":{"state":"Texas","score":99,"leaid":4835100,"name":"Plano Independent School District","stabb":"TX"},"coordinates":[6999,1782]},{"type":"Point","id":4837020,"properties":{"state":"Texas","score":99,"leaid":4837020,"name":"Richardson Independent School District","stabb":"TX"},"coordinates":[7000,1761]},{"type":"Point","id":4838080,"properties":{"state":"Texas","score":99,"leaid":4838080,"name":"Round Rock Independent School District","stabb":"TX"},"coordinates":[6903,1135]},{"type":"Point","id":4808700,"properties":{"state":"Texas","score":99,"leaid":4808700,"name":"Arlington Independent School District","stabb":"TX"},"coordinates":[6961,1703]},{"type":"Point","id":4808940,"properties":{"state":"Texas","score":99,"leaid":4808940,"name":"Austin Independent School District","stabb":"TX"},"coordinates":[6897,1073]},{"type":"Point","id":4826580,"properties":{"state":"Texas","score":99,"leaid":4826580,"name":"Lamar Consolidated Independent School District","stabb":"TX"},"coordinates":[7101,925]},{"type":"Point","id":4843470,"properties":{"state":"Texas","score":99,"leaid":4843470,"name":"Tyler Independent School District","stabb":"TX"},"coordinates":[7145,1604]},{"type":"Point","id":4814280,"properties":{"state":"Texas","score":99,"leaid":4814280,"name":"Clear Creek Independent School District","stabb":"TX"},"coordinates":[7169,881]},{"type":"Point","id":4832940,"properties":{"state":"Texas","score":99,"leaid":4832940,"name":"North East Independent School District","stabb":"TX"},"coordinates":[6825,880]},{"type":"Point","id":4824060,"properties":{"state":"Texas","score":99,"leaid":4824060,"name":"Hurst-Euless-Bedford Independent School District","stabb":"TX"},"coordinates":[6960,1736]},{"type":"Point","id":3631920,"properties":{"state":"New York","score":99,"leaid":3631920,"name":"Yonkers City School District","stabb":"NY"},"coordinates":[9322,3827]},{"type":"Point","id":3605850,"properties":{"state":"New York","score":98,"leaid":3605850,"name":"Buffalo City School District","stabb":"NY"},"coordinates":[8816,4330]},{"type":"Point","id":3624750,"properties":{"state":"New York","score":98,"leaid":3624750,"name":"Rochester City School District","stabb":"NY"},"coordinates":[8944,4399]},{"type":"Point","id":3612630,"properties":{"state":"New York","score":97,"leaid":3612630,"name":"Greece Central School District","stabb":"NY"},"coordinates":[8940,4418]},{"type":"Point","id":3629370,"properties":{"state":"New York","score":97,"leaid":3629370,"name":"Utica City School District","stabb":"NY"},"coordinates":[9185,4382]},{"type":"Point","id":3627810,"properties":{"state":"New York","score":97,"leaid":3627810,"name":"East Ramapo Central School District","stabb":"NY"},"coordinates":[9307,3870]},{"type":"Point","id":3616230,"properties":{"state":"New York","score":97,"leaid":3616230,"name":"Kenmore-Tonawanda Union Free School District","stabb":"NY"},"coordinates":[8818,4355]},{"type":"Point","id":3616290,"properties":{"state":"New York","score":97,"leaid":3616290,"name":"Kingston City School District","stabb":"NY"},"coordinates":[9310,4085]},{"type":"Point","id":3625350,"properties":{"state":"New York","score":97,"leaid":3625350,"name":"Sachem Central School District","stabb":"NY"},"coordinates":[9403,3800]},{"type":"Point","id":3619200,"properties":{"state":"New York","score":97,"leaid":3619200,"name":"Middle Country Central School District","stabb":"NY"},"coordinates":[9405,3811]},{"type":"Point","id":3614010,"properties":{"state":"New York","score":97,"leaid":3614010,"name":"Haverstraw-Stony Point Central School District","stabb":"NY"},"coordinates":[9312,3898]},{"type":"Point","id":3629880,"properties":{"state":"New York","score":97,"leaid":3629880,"name":"Wappingers Central School District","stabb":"NY"},"coordinates":[9324,3998]},{"type":"Point","id":3620490,"properties":{"state":"New York","score":97,"leaid":3620490,"name":"New Rochelle City School District","stabb":"NY"},"coordinates":[9334,3823]},{"type":"Point","id":3603270,"properties":{"state":"New York","score":97,"leaid":3603270,"name":"Arlington Central School District","stabb":"NY"},"coordinates":[9324,4024]},{"type":"Point","id":3620700,"properties":{"state":"New York","score":97,"leaid":3620700,"name":"Newburgh City School District","stabb":"NY"},"coordinates":[9311,3973]},{"type":"Point","id":3904504,"properties":{"state":"Ohio","score":99,"leaid":3904504,"name":"Westerville City School District","stabb":"OH"},"coordinates":[8405,3611]},{"type":"Point","id":3904348,"properties":{"state":"Ohio","score":98,"leaid":3904348,"name":"Akron City School District","stabb":"OH"},"coordinates":[8548,3865]},{"type":"Point","id":3904375,"properties":{"state":"Ohio","score":98,"leaid":3904375,"name":"Cincinnati City School District","stabb":"OH"},"coordinates":[8244,3360]},{"type":"Point","id":3904380,"properties":{"state":"Ohio","score":98,"leaid":3904380,"name":"Columbus City School District","stabb":"OH"},"coordinates":[8398,3575]},{"type":"Point","id":3904611,"properties":{"state":"Ohio","score":98,"leaid":3904611,"name":"Lakota Local School District","stabb":"OH"},"coordinates":[8251,3427]},{"type":"Point","id":3904701,"properties":{"state":"Ohio","score":98,"leaid":3904701,"name":"Hilliard City School District","stabb":"OH"},"coordinates":[8381,3593]},{"type":"Point","id":3904490,"properties":{"state":"Ohio","score":98,"leaid":3904490,"name":"Toledo City School District","stabb":"OH"},"coordinates":[8341,4020]},{"type":"Point","id":3904463,"properties":{"state":"Ohio","score":97,"leaid":3904463,"name":"Parma City School District","stabb":"OH"},"coordinates":[8527,3945]},{"type":"Point","id":3904610,"properties":{"state":"Ohio","score":97,"leaid":3904610,"name":"Fairfield City School District","stabb":"OH"},"coordinates":[8241,3415]},{"type":"Point","id":3904635,"properties":{"state":"Ohio","score":97,"leaid":3904635,"name":"West Clermont Local School District","stabb":"OH"},"coordinates":[8268,3350]},{"type":"Point","id":3904737,"properties":{"state":"Ohio","score":97,"leaid":3904737,"name":"Oak Hills Local School District","stabb":"OH"},"coordinates":[8228,3356]},{"type":"Point","id":3904480,"properties":{"state":"Ohio","score":97,"leaid":3904480,"name":"South-Western City School District","stabb":"OH"},"coordinates":[8392,3555]},{"type":"Point","id":3904384,"properties":{"state":"Ohio","score":96,"leaid":3904384,"name":"Dayton City School District","stabb":"OH"},"coordinates":[8276,3522]},{"type":"Point","id":3904467,"properties":{"state":"Ohio","score":96,"leaid":3904467,"name":"Princeton City School District","stabb":"OH"},"coordinates":[8247,3397]},{"type":"Point","id":3904484,"properties":{"state":"Ohio","score":96,"leaid":3904484,"name":"Strongsville City School District","stabb":"OH"},"coordinates":[8515,3926]},{"type":"Point","id":2635160,"properties":{"state":"Michigan","score":99,"leaid":2635160,"name":"Walled Lake Consolidated Schools","stabb":"MI"},"coordinates":[8347,4240]},{"type":"Point","id":2616440,"properties":{"state":"Michigan","score":99,"leaid":2616440,"name":"Grand Rapids Public Schools","stabb":"MI"},"coordinates":[8129,4346]},{"type":"Point","id":2621840,"properties":{"state":"Michigan","score":98,"leaid":2621840,"name":"Livonia Public Schools","stabb":"MI"},"coordinates":[8359,4203]},{"type":"Point","id":2629940,"properties":{"state":"Michigan","score":98,"leaid":2629940,"name":"Rochester Community School District","stabb":"MI"},"coordinates":[8383,4277]},{"type":"Point","id":2628560,"properties":{"state":"Michigan","score":98,"leaid":2628560,"name":"Plymouth-Canton Community Schools","stabb":"MI"},"coordinates":[8349,4197]},{"type":"Point","id":2634470,"properties":{"state":"Michigan","score":98,"leaid":2634470,"name":"Utica Community Schools","stabb":"MI"},"coordinates":[8395,4247]},{"type":"Point","id":2635310,"properties":{"state":"Michigan","score":98,"leaid":2635310,"name":"Waterford School District","stabb":"MI"},"coordinates":[8362,4271]},{"type":"Point","id":2635190,"properties":{"state":"Michigan","score":98,"leaid":2635190,"name":"Warren Consolidated Schools","stabb":"MI"},"coordinates":[8395,4237]},{"type":"Point","id":2611600,"properties":{"state":"Michigan","score":98,"leaid":2611600,"name":"Dearborn City School District","stabb":"MI"},"coordinates":[8374,4175]},{"type":"Point","id":2620340,"properties":{"state":"Michigan","score":98,"leaid":2620340,"name":"Kentwood Public Schools","stabb":"MI"},"coordinates":[8128,4323]},{"type":"Point","id":2623820,"properties":{"state":"Michigan","score":97,"leaid":2623820,"name":"Midland Public Schools","stabb":"MI"},"coordinates":[8271,4518]},{"type":"Point","id":2609570,"properties":{"state":"Michigan","score":97,"leaid":2609570,"name":"Chippewa Valley Schools","stabb":"MI"},"coordinates":[8404,4259]},{"type":"Point","id":2614070,"properties":{"state":"Michigan","score":97,"leaid":2614070,"name":"Farmington Public School District","stabb":"MI"},"coordinates":[8360,4221]},{"type":"Point","id":2616350,"properties":{"state":"Michigan","score":97,"leaid":2616350,"name":"Grand Blanc Community Schools","stabb":"MI"},"coordinates":[8333,4340]},{"type":"Point","id":2600015,"properties":{"state":"Michigan","score":96,"leaid":2600015,"name":"Wayne-Westland Community School District","stabb":"MI"},"coordinates":[8356,4183]},{"type":"Point","id":4203570,"properties":{"state":"Pennsylvania","score":99,"leaid":4203570,"name":"Bethlehem Area School District","stabb":"PA"},"coordinates":[9174,3748]},{"type":"Point","id":4205400,"properties":{"state":"Pennsylvania","score":99,"leaid":4205400,"name":"Central Dauphin School District","stabb":"PA"},"coordinates":[9027,3658]},{"type":"Point","id":4205310,"properties":{"state":"Pennsylvania","score":98,"leaid":4205310,"name":"Central Bucks School District","stabb":"PA"},"coordinates":[9196,3671]},{"type":"Point","id":4218840,"properties":{"state":"Pennsylvania","score":98,"leaid":4218840,"name":"Pennsbury School District","stabb":"PA"},"coordinates":[9229,3634]},{"type":"Point","id":4216410,"properties":{"state":"Pennsylvania","score":98,"leaid":4216410,"name":"Neshaminy School District","stabb":"PA"},"coordinates":[9216,3626]},{"type":"Point","id":4217280,"properties":{"state":"Pennsylvania","score":98,"leaid":4217280,"name":"North Penn School District","stabb":"PA"},"coordinates":[9182,3645]},{"type":"Point","id":4219170,"properties":{"state":"Pennsylvania","score":98,"leaid":4219170,"name":"Pittsburgh School District","stabb":"PA"},"coordinates":[8707,3700]},{"type":"Point","id":4216980,"properties":{"state":"Pennsylvania","score":98,"leaid":4216980,"name":"Norristown Area School District","stabb":"PA"},"coordinates":[9174,3622]},{"type":"Point","id":4224320,"properties":{"state":"Pennsylvania","score":98,"leaid":4224320,"name":"Upper Darby School District","stabb":"PA"},"coordinates":[9178,3573]},{"type":"Point","id":4206240,"properties":{"state":"Pennsylvania","score":97,"leaid":4206240,"name":"Coatesville Area School District","stabb":"PA"},"coordinates":[9127,3581]},{"type":"Point","id":4202280,"properties":{"state":"Pennsylvania","score":97,"leaid":4202280,"name":"Allentown City School District","stabb":"PA"},"coordinates":[9163,3741]},{"type":"Point","id":4209300,"properties":{"state":"Pennsylvania","score":97,"leaid":4209300,"name":"Erie City School District","stabb":"PA"},"coordinates":[8694,4131]},{"type":"Point","id":4215330,"properties":{"state":"Pennsylvania","score":97,"leaid":4215330,"name":"Millcreek Township School District","stabb":"PA"},"coordinates":[8686,4122]},{"type":"Point","id":4225290,"properties":{"state":"Pennsylvania","score":97,"leaid":4225290,"name":"West Chester Area School District","stabb":"PA"},"coordinates":[9150,3577]},{"type":"Point","id":4202040,"properties":{"state":"Pennsylvania","score":96,"leaid":4202040,"name":"Abington School District","stabb":"PA"},"coordinates":[9197,3614]},{"type":"Point","id":2916400,"properties":{"state":"Missouri","score":98,"leaid":2916400,"name":"Kansas City School District","stabb":"MO"},"coordinates":[7219,3353]},{"type":"Point","id":2918300,"properties":{"state":"Missouri","score":98,"leaid":2918300,"name":"Lee's Summit R-7 School District","stabb":"MO"},"coordinates":[7240,3309]},{"type":"Point","id":2928860,"properties":{"state":"Missouri","score":98,"leaid":2928860,"name":"Springfield School District","stabb":"MO"},"coordinates":[7352,2865]},{"type":"Point","id":2928950,"properties":{"state":"Missouri","score":98,"leaid":2928950,"name":"Francis Howell School District","stabb":"MO"},"coordinates":[7623,3261]},{"type":"Point","id":2908370,"properties":{"state":"Missouri","score":98,"leaid":2908370,"name":"Fort Zumwalt R-II School District","stabb":"MO"},"coordinates":[7614,3276]},{"type":"Point","id":2916190,"properties":{"state":"Missouri","score":98,"leaid":2916190,"name":"Jefferson City Public Schools","stabb":"MO"},"coordinates":[7464,3216]},{"type":"Point","id":2923550,"properties":{"state":"Missouri","score":97,"leaid":2923550,"name":"Park Hill School District","stabb":"MO"},"coordinates":[7210,3390]},{"type":"Point","id":2926850,"properties":{"state":"Missouri","score":97,"leaid":2926850,"name":"Rockwood School District","stabb":"MO"},"coordinates":[7622,3200]},{"type":"Point","id":2927060,"properties":{"state":"Missouri","score":97,"leaid":2927060,"name":"St. Joseph School District","stabb":"MO"},"coordinates":[7192,3525]},{"type":"Point","id":2928920,"properties":{"state":"Missouri","score":97,"leaid":2928920,"name":"St. Charles R-VI School District","stabb":"MO"},"coordinates":[7636,3272]},{"type":"Point","id":2920670,"properties":{"state":"Missouri","score":97,"leaid":2920670,"name":"Mehlville School District","stabb":"MO"},"coordinates":[7653,3201]},{"type":"Point","id":2926070,"properties":{"state":"Missouri","score":96,"leaid":2926070,"name":"Raytown C-2 School District","stabb":"MO"},"coordinates":[7231,3328]},{"type":"Point","id":2923580,"properties":{"state":"Missouri","score":96,"leaid":2923580,"name":"Parkway School District","stabb":"MO"},"coordinates":[7634,3241]},{"type":"Point","id":2931650,"properties":{"state":"Missouri","score":96,"leaid":2931650,"name":"Wentzville R-IV School District","stabb":"MO"},"coordinates":[7597,3278]},{"type":"Point","id":2913830,"properties":{"state":"Missouri","score":96,"leaid":2913830,"name":"Hazelwood School District","stabb":"MO"},"coordinates":[7653,3284]},{"type":"Point","id":4025290,"properties":{"state":"Oklahoma","score":99,"leaid":4025290,"name":"Putnam City Public Schools","stabb":"OK"},"coordinates":[6911,2426]},{"type":"Point","id":4010590,"properties":{"state":"Oklahoma","score":98,"leaid":4010590,"name":"Edmond Public Schools","stabb":"OK"},"coordinates":[6923,2466]},{"type":"Point","id":4022770,"properties":{"state":"Oklahoma","score":98,"leaid":4022770,"name":"Oklahoma City Public Schools","stabb":"OK"},"coordinates":[6926,2423]},{"type":"Point","id":4005490,"properties":{"state":"Oklahoma","score":97,"leaid":4005490,"name":"Broken Arrow Public Schools","stabb":"OK"},"coordinates":[7095,2566]},{"type":"Point","id":4017250,"properties":{"state":"Oklahoma","score":97,"leaid":4017250,"name":"Lawton Public Schools","stabb":"OK"},"coordinates":[6831,2195]},{"type":"Point","id":4021720,"properties":{"state":"Oklahoma","score":97,"leaid":4021720,"name":"Norman Public Schools","stabb":"OK"},"coordinates":[6925,2363]},{"type":"Point","id":4023280,"properties":{"state":"Oklahoma","score":94,"leaid":4023280,"name":"Owasso Public Schools","stabb":"OK"},"coordinates":[7090,2620]},{"type":"Point","id":4021000,"properties":{"state":"Oklahoma","score":93,"leaid":4021000,"name":"Mustang Public Schools","stabb":"OK"},"coordinates":[6899,2394]},{"type":"Point","id":4020970,"properties":{"state":"Oklahoma","score":91,"leaid":4020970,"name":"Muskogee Public Schools","stabb":"OK"},"coordinates":[7139,2487]},{"type":"Point","id":4033480,"properties":{"state":"Oklahoma","score":90,"leaid":4033480,"name":"Yukon Public Schools","stabb":"OK"},"coordinates":[6897,2425]},{"type":"Point","id":4028680,"properties":{"state":"Oklahoma","score":85,"leaid":4028680,"name":"Stillwater Public Schools","stabb":"OK"},"coordinates":[6968,2575]},{"type":"Point","id":4030480,"properties":{"state":"Oklahoma","score":80,"leaid":4030480,"name":"Tyrone Public Schools","stabb":"OK"},"coordinates":[6560,2800]},{"type":"Point","id":4030630,"properties":{"state":"Oklahoma","score":80,"leaid":4030630,"name":"Union City Public Schools","stabb":"OK"},"coordinates":[6878,2395]},{"type":"Point","id":4003210,"properties":{"state":"Oklahoma","score":80,"leaid":4003210,"name":"Arkoma Public Schools","stabb":"OK"},"coordinates":[7234,2386]},{"type":"Point","id":4030870,"properties":{"state":"Oklahoma","score":80,"leaid":4030870,"name":"Valliant Public Schools","stabb":"OK"},"coordinates":[7168,2037]},{"type":"Point","id":1713710,"properties":{"state":"Illinois","score":99,"leaid":1713710,"name":"School District U-46","stabb":"IL"},"coordinates":[7860,4111]},{"type":"Point","id":1731230,"properties":{"state":"Illinois","score":99,"leaid":1731230,"name":"Peoria School District 150","stabb":"IL"},"coordinates":[7727,3773]},{"type":"Point","id":1734510,"properties":{"state":"Illinois","score":99,"leaid":1734510,"name":"Rockford School District 205","stabb":"IL"},"coordinates":[7778,4171]},{"type":"Point","id":1704710,"properties":{"state":"Illinois","score":98,"leaid":1704710,"name":"Aurora West Unit School District 129","stabb":"IL"},"coordinates":[7856,4039]},{"type":"Point","id":1708550,"properties":{"state":"Illinois","score":98,"leaid":1708550,"name":"Community Unit School District 300","stabb":"IL"},"coordinates":[7861,4129]},{"type":"Point","id":1742180,"properties":{"state":"Illinois","score":98,"leaid":1742180,"name":"Community Unit School District 200","stabb":"IL"},"coordinates":[7878,4065]},{"type":"Point","id":1737170,"properties":{"state":"Illinois","score":97,"leaid":1737170,"name":"St. Charles Community Unit School District 303","stabb":"IL"},"coordinates":[7856,4078]},{"type":"Point","id":1740070,"properties":{"state":"Illinois","score":97,"leaid":1740070,"name":"Valley View Community Unit School District 365U","stabb":"IL"},"coordinates":[7880,4013]},{"type":"Point","id":1731740,"properties":{"state":"Illinois","score":97,"leaid":1731740,"name":"Plainfield School District 202","stabb":"IL"},"coordinates":[7869,3997]},{"type":"Point","id":1726400,"properties":{"state":"Illinois","score":97,"leaid":1726400,"name":"Moline Unit School District 40","stabb":"IL"},"coordinates":[7633,3973]},{"type":"Point","id":1741690,"properties":{"state":"Illinois","score":96,"leaid":1741690,"name":"Indian Prairie Community Unit School District 204","stabb":"IL"},"coordinates":[7866,4035]},{"type":"Point","id":1710650,"properties":{"state":"Illinois","score":96,"leaid":1710650,"name":"Collinsville Community Unit School District 10","stabb":"IL"},"coordinates":[7686,3242]},{"type":"Point","id":1713970,"properties":{"state":"Illinois","score":96,"leaid":1713970,"name":"Elmhurst School District 205","stabb":"IL"},"coordinates":[7895,4075]},{"type":"Point","id":1711850,"properties":{"state":"Illinois","score":96,"leaid":1711850,"name":"Decatur School District 61","stabb":"IL"},"coordinates":[7791,3546]},{"type":"Point","id":1728620,"properties":{"state":"Illinois","score":96,"leaid":1728620,"name":"McLean County Unit School District 5","stabb":"IL"},"coordinates":[7785,3715]},{"type":"Point","id":5515780,"properties":{"state":"Wisconsin","score":99,"leaid":5515780,"name":"Waukesha School District","stabb":"WI"},"coordinates":[7865,4361]},{"type":"Point","id":5505820,"properties":{"state":"Wisconsin","score":98,"leaid":5505820,"name":"Green Bay Area School District","stabb":"WI"},"coordinates":[7886,4751]},{"type":"Point","id":5507320,"properties":{"state":"Wisconsin","score":98,"leaid":5507320,"name":"Kenosha School District","stabb":"WI"},"coordinates":[7903,4253]},{"type":"Point","id":5512360,"properties":{"state":"Wisconsin","score":98,"leaid":5512360,"name":"Racine School District","stabb":"WI"},"coordinates":[7908,4297]},{"type":"Point","id":5500390,"properties":{"state":"Wisconsin","score":98,"leaid":5500390,"name":"Appleton Area School District","stabb":"WI"},"coordinates":[7847,4685]},{"type":"Point","id":5511190,"properties":{"state":"Wisconsin","score":97,"leaid":5511190,"name":"Oshkosh Area School District","stabb":"WI"},"coordinates":[7830,4622]},{"type":"Point","id":5515900,"properties":{"state":"Wisconsin","score":97,"leaid":5515900,"name":"Wausau School District","stabb":"WI"},"coordinates":[7724,4864]},{"type":"Point","id":5508520,"properties":{"state":"Wisconsin","score":97,"leaid":5508520,"name":"Madison Metropolitan School District","stabb":"WI"},"coordinates":[7747,4378]},{"type":"Point","id":5504050,"properties":{"state":"Wisconsin","score":97,"leaid":5504050,"name":"Eau Claire Area School District","stabb":"WI"},"coordinates":[7533,4827]},{"type":"Point","id":5516260,"properties":{"state":"Wisconsin","score":96,"leaid":5516260,"name":"West Allis School District","stabb":"WI"},"coordinates":[7888,4364]},{"type":"Point","id":5513650,"properties":{"state":"Wisconsin","score":96,"leaid":5513650,"name":"Sheboygan Area School District","stabb":"WI"},"coordinates":[7918,4553]},{"type":"Point","id":5507020,"properties":{"state":"Wisconsin","score":96,"leaid":5507020,"name":"Janesville School District","stabb":"WI"},"coordinates":[7785,4276]},{"type":"Point","id":5514490,"properties":{"state":"Wisconsin","score":95,"leaid":5514490,"name":"Stevens Point Area School District","stabb":"WI"},"coordinates":[7729,4746]},{"type":"Point","id":5516290,"properties":{"state":"Wisconsin","score":95,"leaid":5516290,"name":"West Bend School District","stabb":"WI"},"coordinates":[7870,4467]},{"type":"Point","id":5504680,"properties":{"state":"Wisconsin","score":95,"leaid":5504680,"name":"Fond du Lac School District","stabb":"WI"},"coordinates":[7843,4558]},{"type":"Point","id":1908970,"properties":{"state":"Iowa","score":99,"leaid":1908970,"name":"Des Moines Independent Community School District","stabb":"IA"},"coordinates":[7316,3994]},{"type":"Point","id":1906540,"properties":{"state":"Iowa","score":98,"leaid":1906540,"name":"Cedar Rapids Community School District","stabb":"IA"},"coordinates":[7513,4093]},{"type":"Point","id":1909480,"properties":{"state":"Iowa","score":98,"leaid":1909480,"name":"Dubuque Community School District","stabb":"IA"},"coordinates":[7613,4233]},{"type":"Point","id":1908580,"properties":{"state":"Iowa","score":98,"leaid":1908580,"name":"Davenport Community School District","stabb":"IA"},"coordinates":[7627,3982]},{"type":"Point","id":1926400,"properties":{"state":"Iowa","score":98,"leaid":1926400,"name":"Sioux City Community School District","stabb":"IA"},"coordinates":[7034,4229]},{"type":"Point","id":1930930,"properties":{"state":"Iowa","score":97,"leaid":1930930,"name":"West Des Moines Community School District","stabb":"IA"},"coordinates":[7303,3990]},{"type":"Point","id":1930480,"properties":{"state":"Iowa","score":96,"leaid":1930480,"name":"Waterloo Community School District","stabb":"IA"},"coordinates":[7448,4227]},{"type":"Point","id":1908220,"properties":{"state":"Iowa","score":94,"leaid":1908220,"name":"Council Bluffs Community School District","stabb":"IA"},"coordinates":[7090,3911]},{"type":"Point","id":1903690,"properties":{"state":"Iowa","score":93,"leaid":1903690,"name":"Ankeny Community School District","stabb":"IA"},"coordinates":[7319,4032]},{"type":"Point","id":1914700,"properties":{"state":"Iowa","score":92,"leaid":1914700,"name":"Iowa City Community School District","stabb":"IA"},"coordinates":[7532,4019]},{"type":"Point","id":1917220,"properties":{"state":"Iowa","score":88,"leaid":1917220,"name":"Linn-Mar Community School District","stabb":"IA"},"coordinates":[7523,4115]},{"type":"Point","id":1903540,"properties":{"state":"Iowa","score":83,"leaid":1903540,"name":"Ames Community School District","stabb":"IA"},"coordinates":[7314,4106]},{"type":"Point","id":1906510,"properties":{"state":"Iowa","score":83,"leaid":1906510,"name":"Cedar Falls Community School District","stabb":"IA"},"coordinates":[7435,4240]},{"type":"Point","id":1911820,"properties":{"state":"Iowa","score":82,"leaid":1911820,"name":"Fort Dodge Community School District","stabb":"IA"},"coordinates":[7261,4232]},{"type":"Point","id":1915450,"properties":{"state":"Iowa","score":82,"leaid":1915450,"name":"Johnston Community School District","stabb":"IA"},"coordinates":[7309,4014]},{"type":"Point","id":2721240,"properties":{"state":"Minnesota","score":99,"leaid":2721240,"name":"Minneapolis Public School District","stabb":"MN"},"coordinates":[7355,4876]},{"type":"Point","id":2733840,"properties":{"state":"Minnesota","score":99,"leaid":2733840,"name":"St. Paul Public School District","stabb":"MN"},"coordinates":[7368,4858]},{"type":"Point","id":2725200,"properties":{"state":"Minnesota","score":98,"leaid":2725200,"name":"Osseo Public School District","stabb":"MN"},"coordinates":[7337,4908]},{"type":"Point","id":2731780,"properties":{"state":"Minnesota","score":98,"leaid":2731780,"name":"Robbinsdale Public School District","stabb":"MN"},"coordinates":[7342,4884]},{"type":"Point","id":2731800,"properties":{"state":"Minnesota","score":98,"leaid":2731800,"name":"Rochester Public School District","stabb":"MN"},"coordinates":[7434,4622]},{"type":"Point","id":2732390,"properties":{"state":"Minnesota","score":98,"leaid":2732390,"name":"Rosemount-Apple Valley-Eagan School District","stabb":"MN"},"coordinates":[7367,4806]},{"type":"Point","id":2733810,"properties":{"state":"Minnesota","score":98,"leaid":2733810,"name":"South Washington County School District","stabb":"MN"},"coordinates":[7385,4832]},{"type":"Point","id":2703180,"properties":{"state":"Minnesota","score":98,"leaid":2703180,"name":"Anoka-Hennepin Public School District","stabb":"MN"},"coordinates":[7348,4921]},{"type":"Point","id":2722950,"properties":{"state":"Minnesota","score":98,"leaid":2722950,"name":"Mounds View Public School District","stabb":"MN"},"coordinates":[7368,4896]},{"type":"Point","id":2723850,"properties":{"state":"Minnesota","score":98,"leaid":2723850,"name":"North St. Paul-Maplewood School District","stabb":"MN"},"coordinates":[7381,4880]},{"type":"Point","id":2742360,"properties":{"state":"Minnesota","score":97,"leaid":2742360,"name":"White Bear Lake School District","stabb":"MN"},"coordinates":[7379,4899]},{"type":"Point","id":2738190,"properties":{"state":"Minnesota","score":97,"leaid":2738190,"name":"Stillwater Area Public School District","stabb":"MN"},"coordinates":[7398,4886]},{"type":"Point","id":2707290,"properties":{"state":"Minnesota","score":97,"leaid":2707290,"name":"Burnsville Public School District","stabb":"MN"},"coordinates":[7351,4819]},{"type":"Point","id":2711040,"properties":{"state":"Minnesota","score":97,"leaid":2711040,"name":"Duluth Public School District","stabb":"MN"},"coordinates":[7472,5338]},{"type":"Point","id":2732430,"properties":{"state":"Minnesota","score":96,"leaid":2732430,"name":"Roseville Public School District","stabb":"MN"},"coordinates":[7365,4880]},{"type":"Point","id":626640,"properties":{"state":"California","score":99,"leaid":626640,"name":"Napa Valley Unified School District","stabb":"CA"},"coordinates":[4401,3149]},{"type":"Point","id":630660,"properties":{"state":"California","score":99,"leaid":630660,"name":"Placentia-Yorba Linda Unified School District","stabb":"CA"},"coordinates":[4855,2002]},{"type":"Point","id":632070,"properties":{"state":"California","score":99,"leaid":632070,"name":"Redlands Unified School District","stabb":"CA"},"coordinates":[4921,2054]},{"type":"Point","id":633150,"properties":{"state":"California","score":99,"leaid":633150,"name":"Riverside Unified School District","stabb":"CA"},"coordinates":[4902,2029]},{"type":"Point","id":633840,"properties":{"state":"California","score":99,"leaid":633840,"name":"Sacramento City Unified School District","stabb":"CA"},"coordinates":[4489,3200]},{"type":"Point","id":634320,"properties":{"state":"California","score":99,"leaid":634320,"name":"San Diego City Unified School District","stabb":"CA"},"coordinates":[4925,1714]},{"type":"Point","id":634590,"properties":{"state":"California","score":99,"leaid":634590,"name":"San Jose Unified School District","stabb":"CA"},"coordinates":[4441,2897]},{"type":"Point","id":634880,"properties":{"state":"California","score":99,"leaid":634880,"name":"San Marcos Unified School District","stabb":"CA"},"coordinates":[4923,1814]},{"type":"Point","id":607440,"properties":{"state":"California","score":99,"leaid":607440,"name":"Capistrano Unified School District","stabb":"CA"},"coordinates":[4872,1902]},{"type":"Point","id":640980,"properties":{"state":"California","score":99,"leaid":640980,"name":"Ventura Unified School District","stabb":"CA"},"coordinates":[4706,2113]},{"type":"Point","id":609030,"properties":{"state":"California","score":99,"leaid":609030,"name":"Clovis Unified School District","stabb":"CA"},"coordinates":[4667,2768]},{"type":"Point","id":609640,"properties":{"state":"California","score":99,"leaid":609640,"name":"Conejo Valley Unified School District","stabb":"CA"},"coordinates":[4752,2087]},{"type":"Point","id":636840,"properties":{"state":"California","score":99,"leaid":636840,"name":"Simi Valley Unified School District","stabb":"CA"},"coordinates":[4759,2108]},{"type":"Point","id":622500,"properties":{"state":"California","score":99,"leaid":622500,"name":"Long Beach Unified School District","stabb":"CA"},"coordinates":[4817,1992]},{"type":"Point","id":623080,"properties":{"state":"California","score":98,"leaid":623080,"name":"Lucia Mar Unified School District","stabb":"CA"},"coordinates":[4576,2324]},{"type":"Point","id":5308700,"properties":{"state":"Washington","score":99,"leaid":5308700,"name":"Tacoma Public Schools","stabb":"WA"},"coordinates":[4386,5458]},{"type":"Point","id":5302400,"properties":{"state":"Washington","score":99,"leaid":5302400,"name":"Edmonds School District","stabb":"WA"},"coordinates":[4398,5602]},{"type":"Point","id":5308250,"properties":{"state":"Washington","score":99,"leaid":5308250,"name":"Spokane Public Schools","stabb":"WA"},"coordinates":[4898,5563]},{"type":"Point","id":5309270,"properties":{"state":"Washington","score":98,"leaid":5309270,"name":"Vancouver Public Schools","stabb":"WA"},"coordinates":[4368,5042]},{"type":"Point","id":5302670,"properties":{"state":"Washington","score":98,"leaid":5302670,"name":"Everett School District","stabb":"WA"},"coordinates":[4410,5639]},{"type":"Point","id":5305430,"properties":{"state":"Washington","score":98,"leaid":5305430,"name":"Mukilteo School District","stabb":"WA"},"coordinates":[4407,5628]},{"type":"Point","id":5305850,"properties":{"state":"Washington","score":98,"leaid":5305850,"name":"North Thurston Public Schools","stabb":"WA"},"coordinates":[4348,5406]},{"type":"Point","id":5305910,"properties":{"state":"Washington","score":98,"leaid":5305910,"name":"Northshore School District","stabb":"WA"},"coordinates":[4412,5593]},{"type":"Point","id":5302700,"properties":{"state":"Washington","score":98,"leaid":5302700,"name":"Evergreen School District (Clark)","stabb":"WA"},"coordinates":[4377,5042]},{"type":"Point","id":5306960,"properties":{"state":"Washington","score":98,"leaid":5306960,"name":"Puyallup School District","stabb":"WA"},"coordinates":[4402,5442]},{"type":"Point","id":5300420,"properties":{"state":"Washington","score":97,"leaid":5300420,"name":"Bellingham School District","stabb":"WA"},"coordinates":[4382,5847]},{"type":"Point","id":5301110,"properties":{"state":"Washington","score":97,"leaid":5301110,"name":"Central Valley School District","stabb":"WA"},"coordinates":[4925,5564]},{"type":"Point","id":5301410,"properties":{"state":"Washington","score":97,"leaid":5301410,"name":"Clover Park School District","stabb":"WA"},"coordinates":[4379,5433]},{"type":"Point","id":5303930,"properties":{"state":"Washington","score":97,"leaid":5303930,"name":"Kennewick School District","stabb":"WA"},"coordinates":[4724,5187]},{"type":"Point","id":5304230,"properties":{"state":"Washington","score":97,"leaid":5304230,"name":"Lake Washington School District","stabb":"WA"},"coordinates":[4419,5566]},{"type":"Point","id":2012990,"properties":{"state":"Kansas","score":99,"leaid":2012990,"name":"Wichita Unified School District 259","stabb":"KS"},"coordinates":[6939,2988]},{"type":"Point","id":2012260,"properties":{"state":"Kansas","score":99,"leaid":2012260,"name":"Topeka Public Schools Unified School District 501","stabb":"KS"},"coordinates":[7107,3334]},{"type":"Point","id":2010140,"properties":{"state":"Kansas","score":98,"leaid":2010140,"name":"Olathe Unified School District 233","stabb":"KS"},"coordinates":[7201,3294]},{"type":"Point","id":2011640,"properties":{"state":"Kansas","score":98,"leaid":2011640,"name":"Shawnee Mission Public Schools Unified School District","stabb":"KS"},"coordinates":[7209,3326]},{"type":"Point","id":2011370,"properties":{"state":"Kansas","score":97,"leaid":2011370,"name":"Salina Unified School District 305","stabb":"KS"},"coordinates":[6913,3285]},{"type":"Point","id":2007950,"properties":{"state":"Kansas","score":96,"leaid":2007950,"name":"Kansas City Unified School District 500","stabb":"KS"},"coordinates":[7206,3360]},{"type":"Point","id":2012000,"properties":{"state":"Kansas","score":96,"leaid":2012000,"name":"Blue Valley Unified School District 229","stabb":"KS"},"coordinates":[7211,3290]},{"type":"Point","id":2008400,"properties":{"state":"Kansas","score":92,"leaid":2008400,"name":"Lawrence Unified School District 497","stabb":"KS"},"coordinates":[7150,3322]},{"type":"Point","id":2003200,"properties":{"state":"Kansas","score":90,"leaid":2003200,"name":"Auburn-Washburn Unified School District 437","stabb":"KS"},"coordinates":[7099,3319]},{"type":"Point","id":2005460,"properties":{"state":"Kansas","score":86,"leaid":2005460,"name":"Derby Unified School District 260","stabb":"KS"},"coordinates":[6946,2951]},{"type":"Point","id":2009180,"properties":{"state":"Kansas","score":86,"leaid":2009180,"name":"Manhattan Unified School District 383","stabb":"KS"},"coordinates":[7015,3373]},{"type":"Point","id":2007890,"properties":{"state":"Kansas","score":85,"leaid":2007890,"name":"Geary County Schools Unified School District 475","stabb":"KS"},"coordinates":[6989,3333]},{"type":"Point","id":2006390,"properties":{"state":"Kansas","score":84,"leaid":2006390,"name":"Garden City Unified School District 457","stabb":"KS"},"coordinates":[6582,3063]},{"type":"Point","id":2007620,"properties":{"state":"Kansas","score":84,"leaid":2007620,"name":"Hutchinson Public Schools Unified School District 308","stabb":"KS"},"coordinates":[6880,3087]},{"type":"Point","id":2009780,"properties":{"state":"Kansas","score":80,"leaid":2009780,"name":"Moundridge Unified School District 423","stabb":"KS"},"coordinates":[6921,3121]},{"type":"Point","id":1805670,"properties":{"state":"Indiana","score":99,"leaid":1805670,"name":"Lawrence Township Metropolitan School District","stabb":"IN"},"coordinates":[8088,3547]},{"type":"Point","id":1810290,"properties":{"state":"Indiana","score":99,"leaid":1810290,"name":"South Bend Community School Corporation","stabb":"IN"},"coordinates":[8066,4016]},{"type":"Point","id":1803450,"properties":{"state":"Indiana","score":98,"leaid":1803450,"name":"Evansville-Vanderburgh School Corporation","stabb":"IN"},"coordinates":[7933,3062]},{"type":"Point","id":1803630,"properties":{"state":"Indiana","score":98,"leaid":1803630,"name":"Fort Wayne Community Schools","stabb":"IN"},"coordinates":[8180,3862]},{"type":"Point","id":1805450,"properties":{"state":"Indiana","score":98,"leaid":1805450,"name":"Lake Central School Corporation","stabb":"IN"},"coordinates":[7942,3964]},{"type":"Point","id":1808760,"properties":{"state":"Indiana","score":98,"leaid":1808760,"name":"Penn-Harris-Madison School Corporation","stabb":"IN"},"coordinates":[8081,4020]},{"type":"Point","id":1808820,"properties":{"state":"Indiana","score":98,"leaid":1808820,"name":"Perry Township Metropolitan School District","stabb":"IN"},"coordinates":[8078,3500]},{"type":"Point","id":1812090,"properties":{"state":"Indiana","score":98,"leaid":1812090,"name":"Vigo County School Corporation","stabb":"IN"},"coordinates":[7949,3447]},{"type":"Point","id":1800360,"properties":{"state":"Indiana","score":98,"leaid":1800360,"name":"Bartholomew County School Corporation","stabb":"IN"},"coordinates":[8102,3381]},{"type":"Point","id":1803940,"properties":{"state":"Indiana","score":97,"leaid":1803940,"name":"Greater Clark County Schools","stabb":"IN"},"coordinates":[8124,3155]},{"type":"Point","id":1807410,"properties":{"state":"Indiana","score":97,"leaid":1807410,"name":"New Albany-Floyd County Consolidated Schools","stabb":"IN"},"coordinates":[8110,3151]},{"type":"Point","id":1802850,"properties":{"state":"Indiana","score":96,"leaid":1802850,"name":"East Allen County Schools","stabb":"IN"},"coordinates":[8192,3861]},{"type":"Point","id":1803270,"properties":{"state":"Indiana","score":96,"leaid":1803270,"name":"Elkhart Community Schools","stabb":"IN"},"coordinates":[8090,4023]},{"type":"Point","id":1805400,"properties":{"state":"Indiana","score":96,"leaid":1805400,"name":"Lafayette School Corporation","stabb":"IN"},"coordinates":[8003,3694]},{"type":"Point","id":1810650,"properties":{"state":"Indiana","score":96,"leaid":1810650,"name":"Hamilton Southeastern Schools","stabb":"IN"},"coordinates":[8092,3581]},{"type":"Point","id":3174820,"properties":{"state":"Nebraska","score":100,"leaid":3174820,"name":"Omaha Public Schools","stabb":"NE"},"coordinates":[7079,3912]},{"type":"Point","id":3172840,"properties":{"state":"Nebraska","score":99,"leaid":3172840,"name":"Lincoln Public Schools","stabb":"NE"},"coordinates":[7004,3785]},{"type":"Point","id":3173740,"properties":{"state":"Nebraska","score":98,"leaid":3173740,"name":"Millard Public Schools","stabb":"NE"},"coordinates":[7061,3895]},{"type":"Point","id":3175270,"properties":{"state":"Nebraska","score":96,"leaid":3175270,"name":"Papillion-La Vista Public Schools","stabb":"NE"},"coordinates":[7071,3883]},{"type":"Point","id":3100016,"properties":{"state":"Nebraska","score":94,"leaid":3100016,"name":"Grand Island Public Schools","stabb":"NE"},"coordinates":[6833,3822]},{"type":"Point","id":3103810,"properties":{"state":"Nebraska","score":94,"leaid":3103810,"name":"Bellevue Public Schools","stabb":"NE"},"coordinates":[7084,3879]},{"type":"Point","id":3172390,"properties":{"state":"Nebraska","score":87,"leaid":3172390,"name":"Kearney Public Schools","stabb":"NE"},"coordinates":[6761,3766]},{"type":"Point","id":3178660,"properties":{"state":"Nebraska","score":84,"leaid":3178660,"name":"Westside Community Schools","stabb":"NE"},"coordinates":[7072,3908]},{"type":"Point","id":3178540,"properties":{"state":"Nebraska","score":80,"leaid":3178540,"name":"Weeping Water Public Schools","stabb":"NE"},"coordinates":[7061,3809]},{"type":"Point","id":3173050,"properties":{"state":"Nebraska","score":80,"leaid":3173050,"name":"Louisville Public Schools","stabb":"NE"},"coordinates":[7058,3843]},{"type":"Point","id":3178720,"properties":{"state":"Nebraska","score":80,"leaid":3178720,"name":"Wilber-Clatonia Public Schools","stabb":"NE"},"coordinates":[6977,3708]},{"type":"Point","id":3178810,"properties":{"state":"Nebraska","score":80,"leaid":3178810,"name":"Winnebago Public Schools","stabb":"NE"},"coordinates":[7027,4163]},{"type":"Point","id":3173090,"properties":{"state":"Nebraska","score":80,"leaid":3173090,"name":"Loup City Public Schools","stabb":"NE"},"coordinates":[6773,3916]},{"type":"Point","id":3178940,"properties":{"state":"Nebraska","score":80,"leaid":3178940,"name":"Wood River Rural Schools","stabb":"NE"},"coordinates":[6810,3800]},{"type":"Point","id":3178990,"properties":{"state":"Nebraska","score":80,"leaid":3178990,"name":"Wynot Public Schools","stabb":"NE"},"coordinates":[6956,4293]},{"type":"Point","id":511850,"properties":{"state":"Arkansas","score":99,"leaid":511850,"name":"Pulaski County Special School District","stabb":"AR"},"coordinates":[7456,2210]},{"type":"Point","id":506330,"properties":{"state":"Arkansas","score":98,"leaid":506330,"name":"Fort Smith Public Schools","stabb":"AR"},"coordinates":[7236,2385]},{"type":"Point","id":509000,"properties":{"state":"Arkansas","score":98,"leaid":509000,"name":"Little Rock School District","stabb":"AR"},"coordinates":[7453,2229]},{"type":"Point","id":503060,"properties":{"state":"Arkansas","score":97,"leaid":503060,"name":"Bentonville Public Schools","stabb":"AR"},"coordinates":[7257,2652]},{"type":"Point","id":511970,"properties":{"state":"Arkansas","score":97,"leaid":511970,"name":"Rogers Public Schools","stabb":"AR"},"coordinates":[7266,2638]},{"type":"Point","id":504590,"properties":{"state":"Arkansas","score":95,"leaid":504590,"name":"Conway Public Schools","stabb":"AR"},"coordinates":[7435,2318]},{"type":"Point","id":503690,"properties":{"state":"Arkansas","score":94,"leaid":503690,"name":"Bryant Public Schools","stabb":"AR"},"coordinates":[7432,2190]},{"type":"Point","id":506120,"properties":{"state":"Arkansas","score":94,"leaid":506120,"name":"Fayetteville School District","stabb":"AR"},"coordinates":[7261,2567]},{"type":"Point","id":503750,"properties":{"state":"Arkansas","score":92,"leaid":503750,"name":"Cabot Public Schools","stabb":"AR"},"coordinates":[7481,2288]},{"type":"Point","id":508280,"properties":{"state":"Arkansas","score":90,"leaid":508280,"name":"Jonesboro Public Schools","stabb":"AR"},"coordinates":[7613,2505]},{"type":"Point","id":512060,"properties":{"state":"Arkansas","score":88,"leaid":512060,"name":"Russellville Schools","stabb":"AR"},"coordinates":[7366,2364]},{"type":"Point","id":513410,"properties":{"state":"Arkansas","score":84,"leaid":513410,"name":"Van Buren School District","stabb":"AR"},"coordinates":[7244,2412]},{"type":"Point","id":509600,"properties":{"state":"Arkansas","score":80,"leaid":509600,"name":"McCrory School District","stabb":"AR"},"coordinates":[7563,2362]},{"type":"Point","id":514370,"properties":{"state":"Arkansas","score":80,"leaid":514370,"name":"Wonderview School District","stabb":"AR"},"coordinates":[7407,2378]},{"type":"Point","id":3409270,"properties":{"state":"New Jersey","score":98,"leaid":3409270,"name":"Old Bridge Township School District","stabb":"NJ"},"coordinates":[9289,3692]},{"type":"Point","id":3416230,"properties":{"state":"New Jersey","score":98,"leaid":3416230,"name":"Toms River Regional School District","stabb":"NJ"},"coordinates":[9293,3579]},{"type":"Point","id":3406540,"properties":{"state":"New Jersey","score":98,"leaid":3406540,"name":"Hamilton Township School District","stabb":"NJ"},"coordinates":[9245,3645]},{"type":"Point","id":3410110,"properties":{"state":"New Jersey","score":97,"leaid":3410110,"name":"Middletown Township School District","stabb":"NJ"},"coordinates":[9302,3689]},{"type":"Point","id":3416500,"properties":{"state":"New Jersey","score":97,"leaid":3416500,"name":"Union Township School District","stabb":"NJ"},"coordinates":[9283,3766]},{"type":"Point","id":3401830,"properties":{"state":"New Jersey","score":97,"leaid":3401830,"name":"Bloomfield Township School District","stabb":"NJ"},"coordinates":[9292,3791]},{"type":"Point","id":3407740,"properties":{"state":"New Jersey","score":97,"leaid":3407740,"name":"Jackson Township School District","stabb":"NJ"},"coordinates":[9277,3613]},{"type":"Point","id":3407830,"properties":{"state":"New Jersey","score":97,"leaid":3407830,"name":"Jersey City School District","stabb":"NJ"},"coordinates":[9303,3769]},{"type":"Point","id":3416800,"properties":{"state":"New Jersey","score":96,"leaid":3416800,"name":"Vineland City School District","stabb":"NJ"},"coordinates":[9208,3453]},{"type":"Point","id":3417070,"properties":{"state":"New Jersey","score":96,"leaid":3417070,"name":"Washington Township School District","stabb":"NJ"},"coordinates":[9199,3519]},{"type":"Point","id":3417280,"properties":{"state":"New Jersey","score":96,"leaid":3417280,"name":"Wayne Township School District","stabb":"NJ"},"coordinates":[9287,3825]},{"type":"Point","id":3418120,"properties":{"state":"New Jersey","score":96,"leaid":3418120,"name":"Woodbridge Township School District","stabb":"NJ"},"coordinates":[9283,3728]},{"type":"Point","id":3403000,"properties":{"state":"New Jersey","score":95,"leaid":3403000,"name":"Cherry Hill Township School District","stabb":"NJ"},"coordinates":[9211,3561]},{"type":"Point","id":3404590,"properties":{"state":"New Jersey","score":95,"leaid":3404590,"name":"Elizabeth City School District","stabb":"NJ"},"coordinates":[9290,3759]},{"type":"Point","id":3411460,"properties":{"state":"New Jersey","score":94,"leaid":3411460,"name":"North Bergen Township School District","stabb":"NJ"},"coordinates":[9312,3794]},{"type":"Point","id":2302820,"properties":{"state":"Maine","score":86,"leaid":2302820,"name":"Bangor","stabb":"ME"},"coordinates":[9844,4825]},{"type":"Point","id":2305360,"properties":{"state":"Maine","score":80,"leaid":2305360,"name":"Eastport","stabb":"ME"},"coordinates":[9999,4918]},{"type":"Point","id":2300004,"properties":{"state":"Maine","score":80,"leaid":2300004,"name":"Bridgewater","stabb":"ME"},"coordinates":[9938,5332]},{"type":"Point","id":2300005,"properties":{"state":"Maine","score":80,"leaid":2300005,"name":"Grand Isle","stabb":"ME"},"coordinates":[9889,5484]},{"type":"Point","id":2300008,"properties":{"state":"Maine","score":80,"leaid":2300008,"name":"Fayette","stabb":"ME"},"coordinates":[9722,4697]},{"type":"Point","id":2300009,"properties":{"state":"Maine","score":80,"leaid":2300009,"name":"Long Island","stabb":"ME"},"coordinates":[9702,4536]},{"type":"Point","id":2300052,"properties":{"state":"Maine","score":80,"leaid":2300052,"name":"The Forks Plantation","stabb":"ME"},"coordinates":[9730,4823]},{"type":"Point","id":2300058,"properties":{"state":"Maine","score":80,"leaid":2300058,"name":"West Forks Plantation","stabb":"ME"},"coordinates":[9692,5041]},{"type":"Point","id":2300059,"properties":{"state":"Maine","score":80,"leaid":2300059,"name":"Lake View Plantation","stabb":"ME"},"coordinates":[9856,4858]},{"type":"Point","id":2300061,"properties":{"state":"Maine","score":80,"leaid":2300061,"name":"Caratunk","stabb":"ME"},"coordinates":[9719,4936]},{"type":"Point","id":2300062,"properties":{"state":"Maine","score":80,"leaid":2300062,"name":"East Machias","stabb":"ME"},"coordinates":[9975,4802]},{"type":"Point","id":2300063,"properties":{"state":"Maine","score":80,"leaid":2300063,"name":"Lowell","stabb":"ME"},"coordinates":[9871,4970]},{"type":"Point","id":2300065,"properties":{"state":"Maine","score":80,"leaid":2300065,"name":"Cutler","stabb":"ME"},"coordinates":[9975,4802]},{"type":"Point","id":2300067,"properties":{"state":"Maine","score":80,"leaid":2300067,"name":"Machiasport","stabb":"ME"},"coordinates":[9975,4802]},{"type":"Point","id":2300068,"properties":{"state":"Maine","score":80,"leaid":2300068,"name":"Whiting","stabb":"ME"},"coordinates":[9975,4802]},{"type":"Point","id":2504980,"properties":{"state":"Massachusetts","score":98,"leaid":2504980,"name":"Framingham School District","stabb":"MA"},"coordinates":[9575,4177]},{"type":"Point","id":2507110,"properties":{"state":"Massachusetts","score":98,"leaid":2507110,"name":"Lynn School District","stabb":"MA"},"coordinates":[9621,4220]},{"type":"Point","id":2507740,"properties":{"state":"Massachusetts","score":98,"leaid":2507740,"name":"Methuen School District","stabb":"MA"},"coordinates":[9598,4290]},{"type":"Point","id":2505970,"properties":{"state":"Massachusetts","score":97,"leaid":2505970,"name":"Haverhill School District","stabb":"MA"},"coordinates":[9609,4302]},{"type":"Point","id":2507020,"properties":{"state":"Massachusetts","score":97,"leaid":2507020,"name":"Lowell School District","stabb":"MA"},"coordinates":[9585,4266]},{"type":"Point","id":2511130,"properties":{"state":"Massachusetts","score":97,"leaid":2511130,"name":"Springfield School District","stabb":"MA"},"coordinates":[9455,4128]},{"type":"Point","id":2508430,"properties":{"state":"Massachusetts","score":96,"leaid":2508430,"name":"New Bedford School District","stabb":"MA"},"coordinates":[9624,4007]},{"type":"Point","id":2509720,"properties":{"state":"Massachusetts","score":96,"leaid":2509720,"name":"Plymouth School District","stabb":"MA"},"coordinates":[9644,4079]},{"type":"Point","id":2502310,"properties":{"state":"Massachusetts","score":95,"leaid":2502310,"name":"Barnstable School District","stabb":"MA"},"coordinates":[9690,4011]},{"type":"Point","id":2507170,"properties":{"state":"Massachusetts","score":95,"leaid":2507170,"name":"Malden School District","stabb":"MA"},"coordinates":[9611,4213]},{"type":"Point","id":2507560,"properties":{"state":"Massachusetts","score":95,"leaid":2507560,"name":"Medford School District","stabb":"MA"},"coordinates":[9604,4212]},{"type":"Point","id":2509870,"properties":{"state":"Massachusetts","score":95,"leaid":2509870,"name":"Quincy School District","stabb":"MA"},"coordinates":[9616,4166]},{"type":"Point","id":2512840,"properties":{"state":"Massachusetts","score":95,"leaid":2512840,"name":"Weymouth School District","stabb":"MA"},"coordinates":[9623,4158]},{"type":"Point","id":2502190,"properties":{"state":"Massachusetts","score":94,"leaid":2502190,"name":"Attleboro School District","stabb":"MA"},"coordinates":[9586,4086]},{"type":"Point","id":2509630,"properties":{"state":"Massachusetts","score":94,"leaid":2509630,"name":"Pittsfield School District","stabb":"MA"},"coordinates":[9388,4219]},{"type":"Point","id":4110820,"properties":{"state":"Oregon","score":99,"leaid":4110820,"name":"Salem-Keizer School District 24J","stabb":"OR"},"coordinates":[4332,4865]},{"type":"Point","id":4101980,"properties":{"state":"Oregon","score":98,"leaid":4101980,"name":"Bend-La Pine Administrative School District 1","stabb":"OR"},"coordinates":[4501,4632]},{"type":"Point","id":4108830,"properties":{"state":"Oregon","score":98,"leaid":4108830,"name":"North Clackamas School District 12","stabb":"OR"},"coordinates":[4369,4988]},{"type":"Point","id":4112240,"properties":{"state":"Oregon","score":98,"leaid":4112240,"name":"Tigard-Tualatin School District 23J","stabb":"OR"},"coordinates":[4355,4985]},{"type":"Point","id":4104740,"properties":{"state":"Oregon","score":98,"leaid":4104740,"name":"Eugene School District 4J","stabb":"OR"},"coordinates":[4319,4634]},{"type":"Point","id":4108040,"properties":{"state":"Oregon","score":97,"leaid":4108040,"name":"Medford School District 549","stabb":"OR"},"coordinates":[4343,4183]},{"type":"Point","id":4106000,"properties":{"state":"Oregon","score":97,"leaid":4106000,"name":"Gresham-Barlow School District 1J","stabb":"OR"},"coordinates":[4387,5007]},{"type":"Point","id":4101120,"properties":{"state":"Oregon","score":96,"leaid":4101120,"name":"Greater Albany School District 8J","stabb":"OR"},"coordinates":[4318,4781]},{"type":"Point","id":4111670,"properties":{"state":"Oregon","score":96,"leaid":4111670,"name":"Springfield School District 19","stabb":"OR"},"coordinates":[4327,4631]},{"type":"Point","id":4109330,"properties":{"state":"Oregon","score":95,"leaid":4109330,"name":"Oregon City School District 62","stabb":"OR"},"coordinates":[4371,4968]},{"type":"Point","id":4113170,"properties":{"state":"Oregon","score":95,"leaid":4113170,"name":"West Linn School District 3J","stabb":"OR"},"coordinates":[4359,4968]},{"type":"Point","id":4102800,"properties":{"state":"Oregon","score":94,"leaid":4102800,"name":"Centennial School District 28J","stabb":"OR"},"coordinates":[4383,5005]},{"type":"Point","id":4108010,"properties":{"state":"Oregon","score":94,"leaid":4108010,"name":"McMinnville School District 40","stabb":"OR"},"coordinates":[4310,4932]},{"type":"Point","id":4110710,"properties":{"state":"Oregon","score":93,"leaid":4110710,"name":"Roseburg School District 4","stabb":"OR"},"coordinates":[4292,4419]},{"type":"Point","id":4107020,"properties":{"state":"Oregon","score":91,"leaid":4107020,"name":"Klamath County School District","stabb":"OR"},"coordinates":[4456,4135]},{"type":"Point","id":1301110,"properties":{"state":"Georgia","score":99,"leaid":1301110,"name":"Cherokee County School District","stabb":"GA"},"coordinates":[8245,2097]},{"type":"Point","id":1301290,"properties":{"state":"Georgia","score":99,"leaid":1301290,"name":"Cobb County School District","stabb":"GA"},"coordinates":[8241,2020]},{"type":"Point","id":1301410,"properties":{"state":"Georgia","score":99,"leaid":1301410,"name":"Columbia County School District","stabb":"GA"},"coordinates":[8482,1915]},{"type":"Point","id":1302550,"properties":{"state":"Georgia","score":99,"leaid":1302550,"name":"Gwinnett County School District","stabb":"GA"},"coordinates":[8290,2040]},{"type":"Point","id":1301500,"properties":{"state":"Georgia","score":98,"leaid":1301500,"name":"Coweta County School District","stabb":"GA"},"coordinates":[8214,1880]},{"type":"Point","id":1301740,"properties":{"state":"Georgia","score":98,"leaid":1301740,"name":"DeKalb County School District","stabb":"GA"},"coordinates":[8275,1993]},{"type":"Point","id":1301860,"properties":{"state":"Georgia","score":98,"leaid":1301860,"name":"Douglas County School District","stabb":"GA"},"coordinates":[8217,1968]},{"type":"Point","id":1302130,"properties":{"state":"Georgia","score":98,"leaid":1302130,"name":"Fayette County School District","stabb":"GA"},"coordinates":[8249,1893]},{"type":"Point","id":1302220,"properties":{"state":"Georgia","score":98,"leaid":1302220,"name":"Forsyth County School District","stabb":"GA"},"coordinates":[8283,2096]},{"type":"Point","id":1302280,"properties":{"state":"Georgia","score":98,"leaid":1302280,"name":"Fulton County School District","stabb":"GA"},"coordinates":[8253,1954]},{"type":"Point","id":1302610,"properties":{"state":"Georgia","score":98,"leaid":1302610,"name":"Hall County School District","stabb":"GA"},"coordinates":[8313,2116]},{"type":"Point","id":1302820,"properties":{"state":"Georgia","score":98,"leaid":1302820,"name":"Henry County School District","stabb":"GA"},"coordinates":[8281,1894]},{"type":"Point","id":1302880,"properties":{"state":"Georgia","score":98,"leaid":1302880,"name":"Houston County School District","stabb":"GA"},"coordinates":[8323,1638]},{"type":"Point","id":1303390,"properties":{"state":"Georgia","score":97,"leaid":1303390,"name":"Lowndes County School District","stabb":"GA"},"coordinates":[8364,1219]},{"type":"Point","id":1300840,"properties":{"state":"Georgia","score":97,"leaid":1300840,"name":"Carroll County School District","stabb":"GA"},"coordinates":[8189,1925]},{"type":"Point","id":804800,"properties":{"state":"Colorado","score":99,"leaid":804800,"name":"Jefferson County School District R-1","stabb":"CO"},"coordinates":[6143,3518]},{"type":"Point","id":802910,"properties":{"state":"Colorado","score":99,"leaid":802910,"name":"Cherry Creek School District 5","stabb":"CO"},"coordinates":[6172,3489]},{"type":"Point","id":803060,"properties":{"state":"Colorado","score":99,"leaid":803060,"name":"Colorado Springs School District 11","stabb":"CO"},"coordinates":[6179,3288]},{"type":"Point","id":803360,"properties":{"state":"Colorado","score":99,"leaid":803360,"name":"Denver County School District 1","stabb":"CO"},"coordinates":[6162,3516]},{"type":"Point","id":805370,"properties":{"state":"Colorado","score":99,"leaid":805370,"name":"St. Vrain Valley School District RE 1J","stabb":"CO"},"coordinates":[6149,3625]},{"type":"Point","id":806900,"properties":{"state":"Colorado","score":99,"leaid":806900,"name":"Northglenn-Thornton School District 12","stabb":"CO"},"coordinates":[6163,3567]},{"type":"Point","id":803450,"properties":{"state":"Colorado","score":98,"leaid":803450,"name":"Douglas County School District RE-1","stabb":"CO"},"coordinates":[6173,3425]},{"type":"Point","id":803990,"properties":{"state":"Colorado","score":98,"leaid":803990,"name":"Poudre School District R-1","stabb":"CO"},"coordinates":[6148,3737]},{"type":"Point","id":804350,"properties":{"state":"Colorado","score":98,"leaid":804350,"name":"Mesa County Valley School District 51","stabb":"CO"},"coordinates":[5800,3345]},{"type":"Point","id":804410,"properties":{"state":"Colorado","score":98,"leaid":804410,"name":"Greeley School District 6","stabb":"CO"},"coordinates":[6191,3694]},{"type":"Point","id":805400,"properties":{"state":"Colorado","score":98,"leaid":805400,"name":"Thompson School District R-2J","stabb":"CO"},"coordinates":[6150,3684]},{"type":"Point","id":801920,"properties":{"state":"Colorado","score":97,"leaid":801920,"name":"Academy School District 20","stabb":"CO"},"coordinates":[6181,3315]},{"type":"Point","id":802340,"properties":{"state":"Colorado","score":97,"leaid":802340,"name":"Adams-Arapahoe School District 28J","stabb":"CO"},"coordinates":[6180,3513]},{"type":"Point","id":805310,"properties":{"state":"Colorado","score":97,"leaid":805310,"name":"Littleton School District 6","stabb":"CO"},"coordinates":[6159,3485]},{"type":"Point","id":806120,"properties":{"state":"Colorado","score":97,"leaid":806120,"name":"Pueblo City School District 60","stabb":"CO"},"coordinates":[6200,3140]},{"type":"Point","id":2101860,"properties":{"state":"Kentucky","score":99,"leaid":2101860,"name":"Fayette County School District","stabb":"KY"},"coordinates":[8246,3078]},{"type":"Point","id":2105730,"properties":{"state":"Kentucky","score":99,"leaid":2105730,"name":"Warren County School District","stabb":"KY"},"coordinates":[8051,2803]},{"type":"Point","id":2100510,"properties":{"state":"Kentucky","score":98,"leaid":2100510,"name":"Boone County School District","stabb":"KY"},"coordinates":[8229,3322]},{"type":"Point","id":2103090,"properties":{"state":"Kentucky","score":98,"leaid":2103090,"name":"Kenton County School District","stabb":"KY"},"coordinates":[8235,3333]},{"type":"Point","id":2102490,"properties":{"state":"Kentucky","score":97,"leaid":2102490,"name":"Hardin County School District","stabb":"KY"},"coordinates":[8102,3006]},{"type":"Point","id":2103030,"properties":{"state":"Kentucky","score":97,"leaid":2103030,"name":"Jessamine County School District","stabb":"KY"},"coordinates":[8238,3037]},{"type":"Point","id":2103720,"properties":{"state":"Kentucky","score":97,"leaid":2103720,"name":"Madison County School District","stabb":"KY"},"coordinates":[8263,3009]},{"type":"Point","id":2104530,"properties":{"state":"Kentucky","score":97,"leaid":2104530,"name":"Oldham County School District","stabb":"KY"},"coordinates":[8149,3169]},{"type":"Point","id":2105260,"properties":{"state":"Kentucky","score":97,"leaid":2105260,"name":"Scott County School District","stabb":"KY"},"coordinates":[8233,3123]},{"type":"Point","id":2102010,"properties":{"state":"Kentucky","score":97,"leaid":2102010,"name":"Franklin County School District","stabb":"KY"},"coordinates":[8210,3122]},{"type":"Point","id":2101150,"properties":{"state":"Kentucky","score":95,"leaid":2101150,"name":"Christian County School District","stabb":"KY"},"coordinates":[7941,2779]},{"type":"Point","id":2101470,"properties":{"state":"Kentucky","score":95,"leaid":2101470,"name":"Daviess County School District","stabb":"KY"},"coordinates":[7982,2999]},{"type":"Point","id":2105320,"properties":{"state":"Kentucky","score":95,"leaid":2105320,"name":"Shelby County School District","stabb":"KY"},"coordinates":[8172,3123]},{"type":"Point","id":2100750,"properties":{"state":"Kentucky","score":94,"leaid":2100750,"name":"Bullitt County School District","stabb":"KY"},"coordinates":[8119,3068]},{"type":"Point","id":2102710,"properties":{"state":"Kentucky","score":93,"leaid":2102710,"name":"Henderson County School District","stabb":"KY"},"coordinates":[7932,3025]},{"type":"Point","id":4666270,"properties":{"state":"South Dakota","score":99,"leaid":4666270,"name":"Sioux Falls School District 49-5","stabb":"SD"},"coordinates":[7001,4493]},{"type":"Point","id":4659820,"properties":{"state":"South Dakota","score":98,"leaid":4659820,"name":"Rapid City School District 51-4","stabb":"SD"},"coordinates":[6340,4639]},{"type":"Point","id":4602070,"properties":{"state":"South Dakota","score":82,"leaid":4602070,"name":"Aberdeen School District 06-1","stabb":"SD"},"coordinates":[6822,4999]},{"type":"Point","id":4680438,"properties":{"state":"South Dakota","score":80,"leaid":4680438,"name":"Platte-Geddes School District 11-5","stabb":"SD"},"coordinates":[6786,4460]},{"type":"Point","id":4680440,"properties":{"state":"South Dakota","score":80,"leaid":4680440,"name":"Highmore-Harrold School District 34-2","stabb":"SD"},"coordinates":[6725,4751]},{"type":"Point","id":4620850,"properties":{"state":"South Dakota","score":80,"leaid":4620850,"name":"Edgemont School District 23-1","stabb":"SD"},"coordinates":[6280,4417]},{"type":"Point","id":4621300,"properties":{"state":"South Dakota","score":80,"leaid":4621300,"name":"Elk Mountain School District 16-2","stabb":"SD"},"coordinates":[6262,4537]},{"type":"Point","id":4621340,"properties":{"state":"South Dakota","score":80,"leaid":4621340,"name":"Elk Point-Jefferson School District 61-7","stabb":"SD"},"coordinates":[7005,4278]},{"type":"Point","id":4621390,"properties":{"state":"South Dakota","score":80,"leaid":4621390,"name":"Elkton School District 05-3","stabb":"SD"},"coordinates":[7026,4677]},{"type":"Point","id":4621400,"properties":{"state":"South Dakota","score":80,"leaid":4621400,"name":"Frederick Area School District 06-2","stabb":"SD"},"coordinates":[6821,5091]},{"type":"Point","id":4621420,"properties":{"state":"South Dakota","score":80,"leaid":4621420,"name":"Emery School District 30-2","stabb":"SD"},"coordinates":[6922,4502]},{"type":"Point","id":4654270,"properties":{"state":"South Dakota","score":80,"leaid":4654270,"name":"Parker School District 60-4","stabb":"SD"},"coordinates":[6959,4462]},{"type":"Point","id":4654300,"properties":{"state":"South Dakota","score":80,"leaid":4654300,"name":"Parkston School District 33-3","stabb":"SD"},"coordinates":[6874,4461]},{"type":"Point","id":4622410,"properties":{"state":"South Dakota","score":80,"leaid":4622410,"name":"Estelline School District 28-2","stabb":"SD"},"coordinates":[6984,4767]},{"type":"Point","id":4622500,"properties":{"state":"South Dakota","score":80,"leaid":4622500,"name":"Ethan School District 17-1","stabb":"SD"},"coordinates":[6873,4500]},{"type":"Point","id":2803830,"properties":{"state":"Mississippi","score":99,"leaid":2803830,"name":"Rankin County School District","stabb":"MS"},"coordinates":[7684,1593]},{"type":"Point","id":2801320,"properties":{"state":"Mississippi","score":98,"leaid":2801320,"name":"DeSoto County School District","stabb":"MS"},"coordinates":[7686,2248]},{"type":"Point","id":2801770,"properties":{"state":"Mississippi","score":97,"leaid":2801770,"name":"Harrison County School District","stabb":"MS"},"coordinates":[7777,1119]},{"type":"Point","id":2802400,"properties":{"state":"Mississippi","score":97,"leaid":2802400,"name":"Lamar County School District","stabb":"MS"},"coordinates":[7745,1297]},{"type":"Point","id":2802790,"properties":{"state":"Mississippi","score":97,"leaid":2802790,"name":"Madison County School District","stabb":"MS"},"coordinates":[7653,1661]},{"type":"Point","id":2802280,"properties":{"state":"Mississippi","score":94,"leaid":2802280,"name":"Jones County School District","stabb":"MS"},"coordinates":[7769,1427]},{"type":"Point","id":2804320,"properties":{"state":"Mississippi","score":94,"leaid":2804320,"name":"Tupelo Public School District","stabb":"MS"},"coordinates":[7817,2102]},{"type":"Point","id":2804470,"properties":{"state":"Mississippi","score":94,"leaid":2804470,"name":"Vicksburg Warren School District","stabb":"MS"},"coordinates":[7597,1608]},{"type":"Point","id":2802190,"properties":{"state":"Mississippi","score":94,"leaid":2802190,"name":"Jackson Public School District","stabb":"MS"},"coordinates":[7667,1595]},{"type":"Point","id":2800630,"properties":{"state":"Mississippi","score":92,"leaid":2800630,"name":"Biloxi Public School District","stabb":"MS"},"coordinates":[7794,1106]},{"type":"Point","id":2801860,"properties":{"state":"Mississippi","score":91,"leaid":2801860,"name":"Hinds County School District","stabb":"MS"},"coordinates":[7643,1584]},{"type":"Point","id":2802430,"properties":{"state":"Mississippi","score":89,"leaid":2802430,"name":"Lauderdale County School District","stabb":"MS"},"coordinates":[7817,1614]},{"type":"Point","id":2802550,"properties":{"state":"Mississippi","score":88,"leaid":2802550,"name":"Lee County School District","stabb":"MS"},"coordinates":[7819,2101]},{"type":"Point","id":2801710,"properties":{"state":"Mississippi","score":87,"leaid":2801710,"name":"Gulfport School District","stabb":"MS"},"coordinates":[7778,1101]},{"type":"Point","id":2801800,"properties":{"state":"Mississippi","score":84,"leaid":2801800,"name":"Hattiesburg Public School District","stabb":"MS"},"coordinates":[7756,1345]},{"type":"Point","id":3806780,"properties":{"state":"North Dakota","score":97,"leaid":3806780,"name":"Fargo Public School District 1","stabb":"ND"},"coordinates":[6995,5362]},{"type":"Point","id":3800014,"properties":{"state":"North Dakota","score":97,"leaid":3800014,"name":"Bismarck Public School District 1","stabb":"ND"},"coordinates":[6588,5344]},{"type":"Point","id":3813030,"properties":{"state":"North Dakota","score":94,"leaid":3813030,"name":"Minot Public School District 1","stabb":"ND"},"coordinates":[6537,5711]},{"type":"Point","id":3808130,"properties":{"state":"North Dakota","score":92,"leaid":3808130,"name":"Grand Forks Public School District 1","stabb":"ND"},"coordinates":[6967,5618]},{"type":"Point","id":3819410,"properties":{"state":"North Dakota","score":91,"leaid":3819410,"name":"West Fargo Public School District 6","stabb":"ND"},"coordinates":[6983,5361]},{"type":"Point","id":3801760,"properties":{"state":"North Dakota","score":80,"leaid":3801760,"name":"Alexander Public School District 2","stabb":"ND"},"coordinates":[6298,5610]},{"type":"Point","id":3801950,"properties":{"state":"North Dakota","score":80,"leaid":3801950,"name":"Anamoose Public School District 14","stabb":"ND"},"coordinates":[6643,5620]},{"type":"Point","id":3802170,"properties":{"state":"North Dakota","score":80,"leaid":3802170,"name":"Ashley Public School District 9","stabb":"ND"},"coordinates":[6731,5143]},{"type":"Point","id":3802380,"properties":{"state":"North Dakota","score":80,"leaid":3802380,"name":"Beach Public School District 3","stabb":"ND"},"coordinates":[6261,5372]},{"type":"Point","id":3803060,"properties":{"state":"North Dakota","score":80,"leaid":3803060,"name":"Bottineau Public School District 1","stabb":"ND"},"coordinates":[6623,5865]},{"type":"Point","id":3803090,"properties":{"state":"North Dakota","score":80,"leaid":3803090,"name":"Bowbells Public School District 14","stabb":"ND"},"coordinates":[6440,5859]},{"type":"Point","id":3803200,"properties":{"state":"North Dakota","score":80,"leaid":3803200,"name":"Bowman County Public School District 1","stabb":"ND"},"coordinates":[6322,5181]},{"type":"Point","id":3806910,"properties":{"state":"North Dakota","score":80,"leaid":3806910,"name":"Finley-Sharon Public School District 19","stabb":"ND"},"coordinates":[6889,5525]},{"type":"Point","id":3803590,"properties":{"state":"North Dakota","score":80,"leaid":3803590,"name":"Burke Central Public School District 36","stabb":"ND"},"coordinates":[6408,5876]},{"type":"Point","id":3812430,"properties":{"state":"North Dakota","score":80,"leaid":3812430,"name":"McClusky Public School District 19","stabb":"ND"},"coordinates":[6623,5517]},{"type":"Point","id":101800,"properties":{"state":"Alabama","score":99,"leaid":101800,"name":"Huntsville City School District","stabb":"AL"},"coordinates":[8033,2226]},{"type":"Point","id":103030,"properties":{"state":"Alabama","score":99,"leaid":103030,"name":"Shelby County School District","stabb":"AL"},"coordinates":[8031,1824]},{"type":"Point","id":100270,"properties":{"state":"Alabama","score":98,"leaid":100270,"name":"Baldwin County School District","stabb":"AL"},"coordinates":[7910,1238]},{"type":"Point","id":101920,"properties":{"state":"Alabama","score":98,"leaid":101920,"name":"Jefferson County School District","stabb":"AL"},"coordinates":[8011,1903]},{"type":"Point","id":102220,"properties":{"state":"Alabama","score":98,"leaid":102220,"name":"Madison County School District","stabb":"AL"},"coordinates":[8039,2239]},{"type":"Point","id":102370,"properties":{"state":"Alabama","score":98,"leaid":102370,"name":"Mobile County School District","stabb":"AL"},"coordinates":[7866,1189]},{"type":"Point","id":103390,"properties":{"state":"Alabama","score":98,"leaid":103390,"name":"Tuscaloosa County School District","stabb":"AL"},"coordinates":[7933,1831]},{"type":"Point","id":101230,"properties":{"state":"Alabama","score":98,"leaid":101230,"name":"Dothan City School District","stabb":"AL"},"coordinates":[8153,1318]},{"type":"Point","id":101170,"properties":{"state":"Alabama","score":97,"leaid":101170,"name":"Decatur City School District","stabb":"AL"},"coordinates":[7992,2192]},{"type":"Point","id":102430,"properties":{"state":"Alabama","score":97,"leaid":102430,"name":"Montgomery County School District","stabb":"AL"},"coordinates":[8061,1616]},{"type":"Point","id":100007,"properties":{"state":"Alabama","score":96,"leaid":100007,"name":"Hoover City School District","stabb":"AL"},"coordinates":[8014,1883]},{"type":"Point","id":101290,"properties":{"state":"Alabama","score":96,"leaid":101290,"name":"Elmore County School District","stabb":"AL"},"coordinates":[8070,1662]},{"type":"Point","id":100240,"properties":{"state":"Alabama","score":96,"leaid":100240,"name":"Autauga County School District","stabb":"AL"},"coordinates":[8044,1639]},{"type":"Point","id":100390,"properties":{"state":"Alabama","score":95,"leaid":100390,"name":"Birmingham City School District","stabb":"AL"},"coordinates":[8010,1912]},{"type":"Point","id":102070,"properties":{"state":"Alabama","score":95,"leaid":102070,"name":"Lee County School District","stabb":"AL"},"coordinates":[8155,1687]},{"type":"Point","id":5101890,"properties":{"state":"Virginia","score":99,"leaid":5101890,"name":"Henrico County Public Schools","stabb":"VA"},"coordinates":[8968,2950]},{"type":"Point","id":5103130,"properties":{"state":"Virginia","score":99,"leaid":5103130,"name":"Prince William County Public Schools","stabb":"VA"},"coordinates":[8962,3233]},{"type":"Point","id":5103840,"properties":{"state":"Virginia","score":99,"leaid":5103840,"name":"Virginia Beach City Public Schools","stabb":"VA"},"coordinates":[9102,2746]},{"type":"Point","id":5100840,"properties":{"state":"Virginia","score":99,"leaid":5100840,"name":"Chesterfield County Public Schools","stabb":"VA"},"coordinates":[8956,2908]},{"type":"Point","id":5101260,"properties":{"state":"Virginia","score":98,"leaid":5101260,"name":"Fairfax County Public Schools","stabb":"VA"},"coordinates":[8984,3293]},{"type":"Point","id":5101320,"properties":{"state":"Virginia","score":98,"leaid":5101320,"name":"Fauquier County Public Schools","stabb":"VA"},"coordinates":[8925,3253]},{"type":"Point","id":5101470,"properties":{"state":"Virginia","score":98,"leaid":5101470,"name":"Frederick County Public Schools","stabb":"VA"},"coordinates":[8886,3376]},{"type":"Point","id":5101830,"properties":{"state":"Virginia","score":98,"leaid":5101830,"name":"Hanover County Public Schools","stabb":"VA"},"coordinates":[8959,3009]},{"type":"Point","id":5103300,"properties":{"state":"Virginia","score":98,"leaid":5103300,"name":"Roanoke City Public Schools","stabb":"VA"},"coordinates":[8708,2884]},{"type":"Point","id":5103330,"properties":{"state":"Virginia","score":98,"leaid":5103330,"name":"Roanoke County Public Schools","stabb":"VA"},"coordinates":[8700,2893]},{"type":"Point","id":5103640,"properties":{"state":"Virginia","score":98,"leaid":5103640,"name":"Spotsylvania County Public Schools","stabb":"VA"},"coordinates":[8954,3115]},{"type":"Point","id":5103660,"properties":{"state":"Virginia","score":98,"leaid":5103660,"name":"Stafford County Public Schools","stabb":"VA"},"coordinates":[8966,3178]},{"type":"Point","id":5100360,"properties":{"state":"Virginia","score":97,"leaid":5100360,"name":"Bedford County Public Schools","stabb":"VA"},"coordinates":[8750,2896]},{"type":"Point","id":5101800,"properties":{"state":"Virginia","score":97,"leaid":5101800,"name":"Hampton City Public Schools","stabb":"VA"},"coordinates":[9073,2817]},{"type":"Point","id":5102250,"properties":{"state":"Virginia","score":97,"leaid":5102250,"name":"Loudoun County Public Schools","stabb":"VA"},"coordinates":[8954,3335]},{"type":"Point","id":4701590,"properties":{"state":"Tennessee","score":99,"leaid":4701590,"name":"Hamilton County School District","stabb":"TN"},"coordinates":[8178,2313]},{"type":"Point","id":4702220,"properties":{"state":"Tennessee","score":99,"leaid":4702220,"name":"Knox County School District","stabb":"TN"},"coordinates":[8304,2542]},{"type":"Point","id":4703180,"properties":{"state":"Tennessee","score":99,"leaid":4703180,"name":"Nashville-Davidson County School District","stabb":"TN"},"coordinates":[8014,2584]},{"type":"Point","id":4702580,"properties":{"state":"Tennessee","score":98,"leaid":4702580,"name":"Jackson-Madison Consolidated School District","stabb":"TN"},"coordinates":[7802,2461]},{"type":"Point","id":4704020,"properties":{"state":"Tennessee","score":98,"leaid":4704020,"name":"Sumner County School District","stabb":"TN"},"coordinates":[8048,2654]},{"type":"Point","id":4703690,"properties":{"state":"Tennessee","score":97,"leaid":4703690,"name":"Rutherford County School District","stabb":"TN"},"coordinates":[8051,2504]},{"type":"Point","id":4704530,"properties":{"state":"Tennessee","score":97,"leaid":4704530,"name":"Williamson County School District","stabb":"TN"},"coordinates":[8002,2530]},{"type":"Point","id":4704550,"properties":{"state":"Tennessee","score":97,"leaid":4704550,"name":"Wilson County School District","stabb":"TN"},"coordinates":[8061,2595]},{"type":"Point","id":4700001,"properties":{"state":"Tennessee","score":96,"leaid":4700001,"name":"Hamblen County School District","stabb":"TN"},"coordinates":[8367,2607]},{"type":"Point","id":4700300,"properties":{"state":"Tennessee","score":96,"leaid":4700300,"name":"Blount County School District","stabb":"TN"},"coordinates":[8302,2488]},{"type":"Point","id":4702130,"properties":{"state":"Tennessee","score":96,"leaid":4702130,"name":"Johnson City School District","stabb":"TN"},"coordinates":[8463,2633]},{"type":"Point","id":4702760,"properties":{"state":"Tennessee","score":96,"leaid":4702760,"name":"Maury County School District","stabb":"TN"},"coordinates":[7986,2453]},{"type":"Point","id":4703480,"properties":{"state":"Tennessee","score":96,"leaid":4703480,"name":"Putnam County School District","stabb":"TN"},"coordinates":[8146,2591]},{"type":"Point","id":4703780,"properties":{"state":"Tennessee","score":96,"leaid":4703780,"name":"Sevier County School District","stabb":"TN"},"coordinates":[8340,2518]},{"type":"Point","id":4703990,"properties":{"state":"Tennessee","score":96,"leaid":4703990,"name":"Sullivan County School District","stabb":"TN"},"coordinates":[8466,2691]},{"type":"Point","id":1600360,"properties":{"state":"Idaho","score":99,"leaid":1600360,"name":"Boise City Independent School District 1","stabb":"ID"},"coordinates":[5013,4508]},{"type":"Point","id":1602640,"properties":{"state":"Idaho","score":98,"leaid":1602640,"name":"Pocatello School District 25","stabb":"ID"},"coordinates":[5401,4331]},{"type":"Point","id":1600780,"properties":{"state":"Idaho","score":97,"leaid":1600780,"name":"Coeur d'Alene School District 271","stabb":"ID"},"coordinates":[4963,5567]},{"type":"Point","id":1601530,"properties":{"state":"Idaho","score":97,"leaid":1601530,"name":"Idaho Falls School District 91","stabb":"ID"},"coordinates":[5446,4487]},{"type":"Point","id":1602340,"properties":{"state":"Idaho","score":95,"leaid":1602340,"name":"Nampa School District 131","stabb":"ID"},"coordinates":[4983,4505]},{"type":"Point","id":1603240,"properties":{"state":"Idaho","score":94,"leaid":1603240,"name":"Twin Falls School District 411","stabb":"ID"},"coordinates":[5197,4246]},{"type":"Point","id":1600930,"properties":{"state":"Idaho","score":90,"leaid":1600930,"name":"Bonneville Joint School District 93","stabb":"ID"},"coordinates":[5452,4496]},{"type":"Point","id":1600600,"properties":{"state":"Idaho","score":86,"leaid":1600600,"name":"Vallivue School District 139","stabb":"ID"},"coordinates":[4972,4521]},{"type":"Point","id":1601860,"properties":{"state":"Idaho","score":86,"leaid":1601860,"name":"Lewiston Independent School District 340","stabb":"ID"},"coordinates":[4943,5233]},{"type":"Point","id":1602670,"properties":{"state":"Idaho","score":85,"leaid":1602670,"name":"Post Falls School District 273","stabb":"ID"},"coordinates":[4945,5577]},{"type":"Point","id":1600002,"properties":{"state":"Idaho","score":81,"leaid":1600002,"name":"Lake Pend Oreille School District 84","stabb":"ID"},"coordinates":[4987,5729]},{"type":"Point","id":1601170,"properties":{"state":"Idaho","score":80,"leaid":1601170,"name":"Garden Valley School District 71","stabb":"ID"},"coordinates":[5046,4641]},{"type":"Point","id":1601290,"properties":{"state":"Idaho","score":80,"leaid":1601290,"name":"Grace Joint School District 148","stabb":"ID"},"coordinates":[5475,4251]},{"type":"Point","id":1601900,"properties":{"state":"Idaho","score":80,"leaid":1601900,"name":"Mackay Joint School District 182","stabb":"ID"},"coordinates":[5285,4594]},{"type":"Point","id":1602030,"properties":{"state":"Idaho","score":80,"leaid":1602030,"name":"McCall-Donnelly Joint School District 421","stabb":"ID"},"coordinates":[5031,4852]},{"type":"Point","id":3703330,"properties":{"state":"North Carolina","score":99,"leaid":3703330,"name":"New Hanover County Schools","stabb":"NC"},"coordinates":[8915,2063]},{"type":"Point","id":3704720,"properties":{"state":"North Carolina","score":99,"leaid":3704720,"name":"Wake County Schools","stabb":"NC"},"coordinates":[8842,2509]},{"type":"Point","id":3700030,"properties":{"state":"North Carolina","score":99,"leaid":3700030,"name":"Alamance-Burlington Schools","stabb":"NC"},"coordinates":[8762,2578]},{"type":"Point","id":3701920,"properties":{"state":"North Carolina","score":99,"leaid":3701920,"name":"Guilford County Schools","stabb":"NC"},"coordinates":[8723,2573]},{"type":"Point","id":3703090,"properties":{"state":"North Carolina","score":98,"leaid":3703090,"name":"Moore County Schools","stabb":"NC"},"coordinates":[8761,2373]},{"type":"Point","id":3704620,"properties":{"state":"North Carolina","score":98,"leaid":3704620,"name":"Union County Public Schools","stabb":"NC"},"coordinates":[8646,2290]},{"type":"Point","id":3701620,"properties":{"state":"North Carolina","score":98,"leaid":3701620,"name":"Gaston County Schools","stabb":"NC"},"coordinates":[8582,2359]},{"type":"Point","id":3700011,"properties":{"state":"North Carolina","score":98,"leaid":3700011,"name":"Cumberland County Schools","stabb":"NC"},"coordinates":[8814,2298]},{"type":"Point","id":3700530,"properties":{"state":"North Carolina","score":98,"leaid":3700530,"name":"Cabarrus County Schools","stabb":"NC"},"coordinates":[8650,2394]},{"type":"Point","id":3702100,"properties":{"state":"North Carolina","score":98,"leaid":3702100,"name":"Henderson County Schools","stabb":"NC"},"coordinates":[8451,2376]},{"type":"Point","id":3702310,"properties":{"state":"North Carolina","score":98,"leaid":3702310,"name":"Iredell-Statesville Schools","stabb":"NC"},"coordinates":[8610,2498]},{"type":"Point","id":3702370,"properties":{"state":"North Carolina","score":98,"leaid":3702370,"name":"Johnston County Schools","stabb":"NC"},"coordinates":[8878,2421]},{"type":"Point","id":3703450,"properties":{"state":"North Carolina","score":97,"leaid":3703450,"name":"Onslow County Schools","stabb":"NC"},"coordinates":[8961,2229]},{"type":"Point","id":3704050,"properties":{"state":"North Carolina","score":97,"leaid":3704050,"name":"Rowan-Salisbury Schools","stabb":"NC"},"coordinates":[8654,2468]},{"type":"Point","id":3700012,"properties":{"state":"North Carolina","score":97,"leaid":3700012,"name":"Pitt County Schools","stabb":"NC"},"coordinates":[8966,2451]},{"type":"Point","id":902310,"properties":{"state":"Connecticut","score":98,"leaid":902310,"name":"Manchester School District","stabb":"CT"},"coordinates":[9463,4041]},{"type":"Point","id":901020,"properties":{"state":"Connecticut","score":98,"leaid":901020,"name":"Danbury School District","stabb":"CT"},"coordinates":[9370,3948]},{"type":"Point","id":904320,"properties":{"state":"Connecticut","score":98,"leaid":904320,"name":"Stamford School District","stabb":"CT"},"coordinates":[9358,3857]},{"type":"Point","id":904440,"properties":{"state":"Connecticut","score":98,"leaid":904440,"name":"Stratford School District","stabb":"CT"},"coordinates":[9400,3893]},{"type":"Point","id":902520,"properties":{"state":"Connecticut","score":97,"leaid":902520,"name":"Milford School District","stabb":"CT"},"coordinates":[9408,3902]},{"type":"Point","id":904830,"properties":{"state":"Connecticut","score":97,"leaid":904830,"name":"Waterbury School District","stabb":"CT"},"coordinates":[9409,3986]},{"type":"Point","id":902670,"properties":{"state":"Connecticut","score":96,"leaid":902670,"name":"New Britain School District","stabb":"CT"},"coordinates":[9436,4016]},{"type":"Point","id":900510,"properties":{"state":"Connecticut","score":96,"leaid":900510,"name":"Bristol School District","stabb":"CT"},"coordinates":[9419,4016]},{"type":"Point","id":901860,"properties":{"state":"Connecticut","score":96,"leaid":901860,"name":"Hamden School District","stabb":"CT"},"coordinates":[9422,3933]},{"type":"Point","id":902400,"properties":{"state":"Connecticut","score":96,"leaid":902400,"name":"Meriden School District","stabb":"CT"},"coordinates":[9434,3982]},{"type":"Point","id":904740,"properties":{"state":"Connecticut","score":96,"leaid":904740,"name":"Wallingford School District","stabb":"CT"},"coordinates":[9430,3969]},{"type":"Point","id":901260,"properties":{"state":"Connecticut","score":95,"leaid":901260,"name":"East Hartford School District","stabb":"CT"},"coordinates":[9453,4045]},{"type":"Point","id":902790,"properties":{"state":"Connecticut","score":94,"leaid":902790,"name":"New Haven School District","stabb":"CT"},"coordinates":[9420,3920]},{"type":"Point","id":903120,"properties":{"state":"Connecticut","score":94,"leaid":903120,"name":"Norwich School District","stabb":"CT"},"coordinates":[9506,3985]},{"type":"Point","id":901470,"properties":{"state":"Connecticut","score":93,"leaid":901470,"name":"Enfield School District","stabb":"CT"},"coordinates":[9458,4102]},{"type":"Point","id":401870,"properties":{"state":"Arizona","score":99,"leaid":401870,"name":"Chandler Unified District","stabb":"AZ"},"coordinates":[5462,1855]},{"type":"Point","id":405930,"properties":{"state":"Arizona","score":99,"leaid":405930,"name":"Paradise Valley Unified District","stabb":"AZ"},"coordinates":[5447,1939]},{"type":"Point","id":407750,"properties":{"state":"Arizona","score":99,"leaid":407750,"name":"Deer Valley Unified District","stabb":"AZ"},"coordinates":[5439,1951]},{"type":"Point","id":408800,"properties":{"state":"Arizona","score":99,"leaid":408800,"name":"Tucson Unified District","stabb":"AZ"},"coordinates":[5554,1577]},{"type":"Point","id":400680,"properties":{"state":"Arizona","score":98,"leaid":400680,"name":"Amphitheater Unified District","stabb":"AZ"},"coordinates":[5552,1594]},{"type":"Point","id":403400,"properties":{"state":"Arizona","score":98,"leaid":403400,"name":"Gilbert Unified District","stabb":"AZ"},"coordinates":[5470,1868]},{"type":"Point","id":404630,"properties":{"state":"Arizona","score":98,"leaid":404630,"name":"Marana Unified District","stabb":"AZ"},"coordinates":[5529,1637]},{"type":"Point","id":404970,"properties":{"state":"Arizona","score":98,"leaid":404970,"name":"Mesa Unified District","stabb":"AZ"},"coordinates":[5466,1885]},{"type":"Point","id":406250,"properties":{"state":"Arizona","score":98,"leaid":406250,"name":"Peoria Unified School District","stabb":"AZ"},"coordinates":[5428,1935]},{"type":"Point","id":407570,"properties":{"state":"Arizona","score":97,"leaid":407570,"name":"Scottsdale Unified District","stabb":"AZ"},"coordinates":[5450,1905]},{"type":"Point","id":402690,"properties":{"state":"Arizona","score":97,"leaid":402690,"name":"Dysart Unified District","stabb":"AZ"},"coordinates":[5409,1940]},{"type":"Point","id":402860,"properties":{"state":"Arizona","score":96,"leaid":402860,"name":"Flagstaff Unified District","stabb":"AZ"},"coordinates":[5489,2345]},{"type":"Point","id":401460,"properties":{"state":"Arizona","score":94,"leaid":401460,"name":"Sierra Vista Unified District","stabb":"AZ"},"coordinates":[5625,1405]},{"type":"Point","id":406730,"properties":{"state":"Arizona","score":94,"leaid":406730,"name":"Prescott Unified District","stabb":"AZ"},"coordinates":[5400,2175]},{"type":"Point","id":408850,"properties":{"state":"Arizona","score":94,"leaid":408850,"name":"Vail Unified District","stabb":"AZ"},"coordinates":[5581,1523]},{"type":"Point","id":3500060,"properties":{"state":"New Mexico","score":99,"leaid":3500060,"name":"Albuquerque Public Schools","stabb":"NM"},"coordinates":[6000,2321]},{"type":"Point","id":3501500,"properties":{"state":"New Mexico","score":98,"leaid":3501500,"name":"Las Cruces Public Schools","stabb":"NM"},"coordinates":[5979,1598]},{"type":"Point","id":3500010,"properties":{"state":"New Mexico","score":97,"leaid":3500010,"name":"Rio Rancho Public Schools","stabb":"NM"},"coordinates":[5994,2363]},{"type":"Point","id":3502370,"properties":{"state":"New Mexico","score":97,"leaid":3502370,"name":"Santa Fe Public Schools","stabb":"NM"},"coordinates":[6063,2467]},{"type":"Point","id":3500990,"properties":{"state":"New Mexico","score":95,"leaid":3500990,"name":"Farmington Municipal Schools","stabb":"NM"},"coordinates":[5834,2746]},{"type":"Point","id":3502250,"properties":{"state":"New Mexico","score":94,"leaid":3502250,"name":"Roswell Independent Schools","stabb":"NM"},"coordinates":[6208,1880]},{"type":"Point","id":3500570,"properties":{"state":"New Mexico","score":93,"leaid":3500570,"name":"Clovis Municipal Schools","stabb":"NM"},"coordinates":[6342,2141]},{"type":"Point","id":3500030,"properties":{"state":"New Mexico","score":92,"leaid":3500030,"name":"Alamogordo Public Schools","stabb":"NM"},"coordinates":[6063,1752]},{"type":"Point","id":3501680,"properties":{"state":"New Mexico","score":92,"leaid":3501680,"name":"Los Lunas Public Schools","stabb":"NM"},"coordinates":[5983,2245]},{"type":"Point","id":3501110,"properties":{"state":"New Mexico","score":89,"leaid":3501110,"name":"Gallup-Mckinley County Schools","stabb":"NM"},"coordinates":[5783,2428]},{"type":"Point","id":3501260,"properties":{"state":"New Mexico","score":89,"leaid":3501260,"name":"Hobbs Municipal Schools","stabb":"NM"},"coordinates":[6351,1703]},{"type":"Point","id":3500300,"properties":{"state":"New Mexico","score":86,"leaid":3500300,"name":"Carlsbad Municipal Schools","stabb":"NM"},"coordinates":[6239,1629]},{"type":"Point","id":3500900,"properties":{"state":"New Mexico","score":83,"leaid":3500900,"name":"Espaola Municipal Schools","stabb":"NM"},"coordinates":[6023,2608]},{"type":"Point","id":3500960,"properties":{"state":"New Mexico","score":80,"leaid":3500960,"name":"Eunice Municipal Schools","stabb":"NM"},"coordinates":[6347,1633]},{"type":"Point","id":3501200,"properties":{"state":"New Mexico","score":80,"leaid":3501200,"name":"Hagerman Municipal Schools","stabb":"NM"},"coordinates":[6228,1808]},{"type":"Point","id":4501110,"properties":{"state":"South Carolina","score":99,"leaid":4501110,"name":"Beaufort County School District","stabb":"SC"},"coordinates":[8633,1632]},{"type":"Point","id":4502310,"properties":{"state":"South Carolina","score":99,"leaid":4502310,"name":"Greenville County School District","stabb":"SC"},"coordinates":[8458,2254]},{"type":"Point","id":4500720,"properties":{"state":"South Carolina","score":98,"leaid":4500720,"name":"Aiken County School District","stabb":"SC"},"coordinates":[8528,1907]},{"type":"Point","id":4501170,"properties":{"state":"South Carolina","score":98,"leaid":4501170,"name":"Berkeley County School District","stabb":"SC"},"coordinates":[8701,1828]},{"type":"Point","id":4502130,"properties":{"state":"South Carolina","score":98,"leaid":4502130,"name":"Florence School District 1","stabb":"SC"},"coordinates":[8726,2086]},{"type":"Point","id":4502700,"properties":{"state":"South Carolina","score":98,"leaid":4502700,"name":"Lexington School District 1","stabb":"SC"},"coordinates":[8579,2030]},{"type":"Point","id":4502730,"properties":{"state":"South Carolina","score":98,"leaid":4502730,"name":"Lexington School District 2","stabb":"SC"},"coordinates":[8594,2032]},{"type":"Point","id":4502820,"properties":{"state":"South Carolina","score":98,"leaid":4502820,"name":"Lexington School District 5","stabb":"SC"},"coordinates":[8578,2068]},{"type":"Point","id":4503870,"properties":{"state":"South Carolina","score":98,"leaid":4503870,"name":"York School District 3","stabb":"SC"},"coordinates":[8601,2282]},{"type":"Point","id":4503060,"properties":{"state":"South Carolina","score":97,"leaid":4503060,"name":"Oconee County School District","stabb":"SC"},"coordinates":[8389,2232]},{"type":"Point","id":4503360,"properties":{"state":"South Carolina","score":97,"leaid":4503360,"name":"Richland School District 1","stabb":"SC"},"coordinates":[8597,2039]},{"type":"Point","id":4503390,"properties":{"state":"South Carolina","score":97,"leaid":4503390,"name":"Richland School District 2","stabb":"SC"},"coordinates":[8605,2049]},{"type":"Point","id":4502340,"properties":{"state":"South Carolina","score":96,"leaid":4502340,"name":"Greenwood School District 50","stabb":"SC"},"coordinates":[8478,2092]},{"type":"Point","id":4502550,"properties":{"state":"South Carolina","score":96,"leaid":4502550,"name":"Kershaw County School District","stabb":"SC"},"coordinates":[8642,2101]},{"type":"Point","id":4503330,"properties":{"state":"South Carolina","score":96,"leaid":4503330,"name":"Pickens County School District","stabb":"SC"},"coordinates":[8431,2253]},{"type":"Point","id":3304590,"properties":{"state":"New Hampshire","score":98,"leaid":3304590,"name":"Manchester School District","stabb":"NH"},"coordinates":[9569,4358]},{"type":"Point","id":3302460,"properties":{"state":"New Hampshire","score":92,"leaid":3302460,"name":"Concord School District","stabb":"NH"},"coordinates":[9561,4412]},{"type":"Point","id":3300616,"properties":{"state":"New Hampshire","score":80,"leaid":3300616,"name":"Milton School District","stabb":"NH"},"coordinates":[9614,4488]},{"type":"Point","id":3307200,"properties":{"state":"New Hampshire","score":80,"leaid":3307200,"name":"Windsor School District","stabb":"NH"},"coordinates":[9525,4390]},{"type":"Point","id":3302200,"properties":{"state":"New Hampshire","score":80,"leaid":3302200,"name":"Chatham School District","stabb":"NH"},"coordinates":[9606,4612]},{"type":"Point","id":3300035,"properties":{"state":"New Hampshire","score":80,"leaid":3300035,"name":"Gorham Randolph Shelburne Cooperative School District","stabb":"NH"},"coordinates":[9599,4719]},{"type":"Point","id":3301350,"properties":{"state":"New Hampshire","score":80,"leaid":3301350,"name":"Albany School District","stabb":"NH"},"coordinates":[9606,4612]},{"type":"Point","id":3301830,"properties":{"state":"New Hampshire","score":80,"leaid":3301830,"name":"Benton School District","stabb":"NH"},"coordinates":[9513,4643]},{"type":"Point","id":3301950,"properties":{"state":"New Hampshire","score":80,"leaid":3301950,"name":"Bow School District","stabb":"NH"},"coordinates":[9561,4399]},{"type":"Point","id":3302370,"properties":{"state":"New Hampshire","score":80,"leaid":3302370,"name":"Clarksville School District","stabb":"NH"},"coordinates":[9567,4849]},{"type":"Point","id":3302400,"properties":{"state":"New Hampshire","score":80,"leaid":3302400,"name":"Colebrook School District","stabb":"NH"},"coordinates":[9567,4849]},{"type":"Point","id":3302430,"properties":{"state":"New Hampshire","score":80,"leaid":3302430,"name":"Columbia School District","stabb":"NH"},"coordinates":[9567,4849]},{"type":"Point","id":3302490,"properties":{"state":"New Hampshire","score":80,"leaid":3302490,"name":"Conway School District","stabb":"NH"},"coordinates":[9604,4613]},{"type":"Point","id":3302510,"properties":{"state":"New Hampshire","score":80,"leaid":3302510,"name":"Coos County School District","stabb":"NH"},"coordinates":[9563,4871]},{"type":"Point","id":3302730,"properties":{"state":"New Hampshire","score":80,"leaid":3302730,"name":"Dummer School District","stabb":"NH"},"coordinates":[9599,4718]},{"type":"Point","id":2200840,"properties":{"state":"Louisiana","score":99,"leaid":2200840,"name":"Jefferson Parish School District","stabb":"LA"},"coordinates":[7680,974]},{"type":"Point","id":2200270,"properties":{"state":"Louisiana","score":98,"leaid":2200270,"name":"Bossier Parish School District","stabb":"LA"},"coordinates":[7305,1699]},{"type":"Point","id":2200330,"properties":{"state":"Louisiana","score":98,"leaid":2200330,"name":"Calcasieu Parish School District","stabb":"LA"},"coordinates":[7363,1062]},{"type":"Point","id":2201200,"properties":{"state":"Louisiana","score":98,"leaid":2201200,"name":"Ouachita Parish School District","stabb":"LA"},"coordinates":[7470,1648]},{"type":"Point","id":2200540,"properties":{"state":"Louisiana","score":98,"leaid":2200540,"name":"East Baton Rouge Parish School District","stabb":"LA"},"coordinates":[7570,1117]},{"type":"Point","id":2200300,"properties":{"state":"Louisiana","score":97,"leaid":2200300,"name":"Caddo Parish School District","stabb":"LA"},"coordinates":[7302,1641]},{"type":"Point","id":2201290,"properties":{"state":"Louisiana","score":97,"leaid":2201290,"name":"Rapides Parish School District","stabb":"LA"},"coordinates":[7436,1342]},{"type":"Point","id":2201680,"properties":{"state":"Louisiana","score":97,"leaid":2201680,"name":"Tangipahoa Parish School District","stabb":"LA"},"coordinates":[7631,1188]},{"type":"Point","id":2200900,"properties":{"state":"Louisiana","score":96,"leaid":2200900,"name":"Lafourche Parish School District","stabb":"LA"},"coordinates":[7602,949]},{"type":"Point","id":2201020,"properties":{"state":"Louisiana","score":96,"leaid":2201020,"name":"Livingston Parish School District","stabb":"LA"},"coordinates":[7609,1133]},{"type":"Point","id":2201740,"properties":{"state":"Louisiana","score":96,"leaid":2201740,"name":"Terrebonne Parish School District","stabb":"LA"},"coordinates":[7610,900]},{"type":"Point","id":2200720,"properties":{"state":"Louisiana","score":94,"leaid":2200720,"name":"Iberia Parish School District","stabb":"LA"},"coordinates":[7500,1009]},{"type":"Point","id":2201440,"properties":{"state":"Louisiana","score":94,"leaid":2201440,"name":"St. Charles Parish School District","stabb":"LA"},"coordinates":[7647,987]},{"type":"Point","id":2201560,"properties":{"state":"Louisiana","score":93,"leaid":2201560,"name":"St. Landry Parish School District","stabb":"LA"},"coordinates":[7474,1137]},{"type":"Point","id":2201830,"properties":{"state":"Louisiana","score":93,"leaid":2201830,"name":"Vernon Parish School District","stabb":"LA"},"coordinates":[7353,1301]},{"type":"Point","id":1200180,"properties":{"state":"Florida","score":99,"leaid":1200180,"name":"Broward County School District","stabb":"FL"},"coordinates":[8688,0]},{"type":"Point","id":1200480,"properties":{"state":"Florida","score":99,"leaid":1200480,"name":"Duval County School District","stabb":"FL"},"coordinates":[8534,1085]},{"type":"Point","id":1200510,"properties":{"state":"Florida","score":99,"leaid":1200510,"name":"Escambia County School District","stabb":"FL"},"coordinates":[7966,1110]},{"type":"Point","id":1201230,"properties":{"state":"Florida","score":99,"leaid":1201230,"name":"Manatee County School District","stabb":"FL"},"coordinates":[8441,356]},{"type":"Point","id":1201500,"properties":{"state":"Florida","score":99,"leaid":1201500,"name":"Palm Beach County School District","stabb":"FL"},"coordinates":[8692,138]},{"type":"Point","id":1201710,"properties":{"state":"Florida","score":99,"leaid":1201710,"name":"Seminole County School District","stabb":"FL"},"coordinates":[8571,682]},{"type":"Point","id":1201740,"properties":{"state":"Florida","score":99,"leaid":1201740,"name":"St. Johns County School District","stabb":"FL"},"coordinates":[8568,977]},{"type":"Point","id":1200150,"properties":{"state":"Florida","score":98,"leaid":1200150,"name":"Brevard County School District","stabb":"FL"},"coordinates":[8627,551]},{"type":"Point","id":1200300,"properties":{"state":"Florida","score":98,"leaid":1200300,"name":"Clay County School District","stabb":"FL"},"coordinates":[8531,1001]},{"type":"Point","id":1200330,"properties":{"state":"Florida","score":98,"leaid":1200330,"name":"Collier County School District","stabb":"FL"},"coordinates":[8523,27]},{"type":"Point","id":1201080,"properties":{"state":"Florida","score":98,"leaid":1201080,"name":"Lee County School District","stabb":"FL"},"coordinates":[8513,125]},{"type":"Point","id":1201380,"properties":{"state":"Florida","score":98,"leaid":1201380,"name":"Okaloosa County School District","stabb":"FL"},"coordinates":[8030,1108]},{"type":"Point","id":1201470,"properties":{"state":"Florida","score":98,"leaid":1201470,"name":"Osceola County School District","stabb":"FL"},"coordinates":[8563,564]},{"type":"Point","id":1201560,"properties":{"state":"Florida","score":98,"leaid":1201560,"name":"Pinellas County School District","stabb":"FL"},"coordinates":[8418,465]},{"type":"Point","id":1201590,"properties":{"state":"Florida","score":98,"leaid":1201590,"name":"Polk County School District","stabb":"FL"},"coordinates":[8514,454]},{"type":"Point","id":5002820,"properties":{"state":"Vermont","score":83,"leaid":5002820,"name":"Burlington School District","stabb":"VT"},"coordinates":[9390,4746]},{"type":"Point","id":5000011,"properties":{"state":"Vermont","score":80,"leaid":5000011,"name":"Buels Gore School District","stabb":"VT"},"coordinates":[9414,4722]},{"type":"Point","id":5000012,"properties":{"state":"Vermont","score":80,"leaid":5000012,"name":"Ferdinand School District","stabb":"VT"},"coordinates":[9493,4859]},{"type":"Point","id":5000013,"properties":{"state":"Vermont","score":80,"leaid":5000013,"name":"Glastenbury School District","stabb":"VT"},"coordinates":[9396,4325]},{"type":"Point","id":5000024,"properties":{"state":"Vermont","score":80,"leaid":5000024,"name":"Rivendell Interstate School District","stabb":"VT"},"coordinates":[9489,4594]},{"type":"Point","id":5002280,"properties":{"state":"Vermont","score":80,"leaid":5002280,"name":"Bloomfield School District","stabb":"VT"},"coordinates":[9563,4876]},{"type":"Point","id":5002760,"properties":{"state":"Vermont","score":80,"leaid":5002760,"name":"Brunswick School District","stabb":"VT"},"coordinates":[9563,4876]},{"type":"Point","id":5002850,"properties":{"state":"Vermont","score":80,"leaid":5002850,"name":"Cabot School District","stabb":"VT"},"coordinates":[9484,4722]},{"type":"Point","id":5002940,"properties":{"state":"Vermont","score":80,"leaid":5002940,"name":"Canaan School District","stabb":"VT"},"coordinates":[9562,4875]},{"type":"Point","id":5003120,"properties":{"state":"Vermont","score":80,"leaid":5003120,"name":"Chelsea School District","stabb":"VT"},"coordinates":[9470,4614]},{"type":"Point","id":5003270,"properties":{"state":"Vermont","score":80,"leaid":5003270,"name":"Concord School District","stabb":"VT"},"coordinates":[9526,4728]},{"type":"Point","id":5003390,"properties":{"state":"Vermont","score":80,"leaid":5003390,"name":"Craftsbury School District","stabb":"VT"},"coordinates":[9476,4787]},{"type":"Point","id":5003450,"properties":{"state":"Vermont","score":80,"leaid":5003450,"name":"Danville School District","stabb":"VT"},"coordinates":[9501,4724]},{"type":"Point","id":5003660,"properties":{"state":"Vermont","score":80,"leaid":5003660,"name":"East Haven School District","stabb":"VT"},"coordinates":[9526,4783]},{"type":"Point","id":5003780,"properties":{"state":"Vermont","score":80,"leaid":5003780,"name":"Enosburgh School District","stabb":"VT"},"coordinates":[9434,4851]},{"type":"Point","id":5400570,"properties":{"state":"West Virginia","score":98,"leaid":5400570,"name":"Jefferson County School District","stabb":"WV"},"coordinates":[8919,3400]},{"type":"Point","id":5400600,"properties":{"state":"West Virginia","score":98,"leaid":5400600,"name":"Kanawha County School District","stabb":"WV"},"coordinates":[8537,3156]},{"type":"Point","id":5400060,"properties":{"state":"West Virginia","score":97,"leaid":5400060,"name":"Berkeley County School District","stabb":"WV"},"coordinates":[8908,3443]},{"type":"Point","id":5400180,"properties":{"state":"West Virginia","score":97,"leaid":5400180,"name":"Cabell County School District","stabb":"WV"},"coordinates":[8458,3179]},{"type":"Point","id":5401620,"properties":{"state":"West Virginia","score":97,"leaid":5401620,"name":"Wood County School District","stabb":"WV"},"coordinates":[8545,3396]},{"type":"Point","id":5400510,"properties":{"state":"West Virginia","score":95,"leaid":5400510,"name":"Harrison County School District","stabb":"WV"},"coordinates":[8668,3398]},{"type":"Point","id":5401200,"properties":{"state":"West Virginia","score":95,"leaid":5401200,"name":"Putnam County School District","stabb":"WV"},"coordinates":[8509,3206]},{"type":"Point","id":5401230,"properties":{"state":"West Virginia","score":94,"leaid":5401230,"name":"Raleigh County School District","stabb":"WV"},"coordinates":[8581,3013]},{"type":"Point","id":5400720,"properties":{"state":"West Virginia","score":93,"leaid":5400720,"name":"Marion County School District","stabb":"WV"},"coordinates":[8687,3451]},{"type":"Point","id":5400840,"properties":{"state":"West Virginia","score":93,"leaid":5400840,"name":"Mercer County School District","stabb":"WV"},"coordinates":[8590,2905]},{"type":"Point","id":5400930,"properties":{"state":"West Virginia","score":92,"leaid":5400930,"name":"Monongalia School District","stabb":"WV"},"coordinates":[8706,3489]},{"type":"Point","id":5401500,"properties":{"state":"West Virginia","score":87,"leaid":5401500,"name":"Wayne County School District","stabb":"WV"},"coordinates":[8454,3126]},{"type":"Point","id":5400300,"properties":{"state":"West Virginia","score":85,"leaid":5400300,"name":"Fayette County School District","stabb":"WV"},"coordinates":[8590,3082]},{"type":"Point","id":5400390,"properties":{"state":"West Virginia","score":84,"leaid":5400390,"name":"Greenbrier County School District","stabb":"WV"},"coordinates":[8657,3018]},{"type":"Point","id":5400210,"properties":{"state":"West Virginia","score":80,"leaid":5400210,"name":"Calhoun County School District","stabb":"WV"},"coordinates":[8588,3292]},{"type":"Point","id":200600,"properties":{"state":"Alaska","score":98,"leaid":200600,"name":"Fairbanks North Star Borough School District","stabb":"AK"},"coordinates":[1817,9999]},{"type":"Point","id":200390,"properties":{"state":"Alaska","score":95,"leaid":200390,"name":"Kenai Peninsula Borough School District","stabb":"AK"},"coordinates":[1476,8875]},{"type":"Point","id":200210,"properties":{"state":"Alaska","score":88,"leaid":200210,"name":"Juneau Borough School District","stabb":"AK"},"coordinates":[3168,8311]},{"type":"Point","id":200004,"properties":{"state":"Alaska","score":80,"leaid":200004,"name":"Yupiit School District","stabb":"AK"},"coordinates":[427,8980]},{"type":"Point","id":200005,"properties":{"state":"Alaska","score":80,"leaid":200005,"name":"Kashunamiut School District","stabb":"AK"},"coordinates":[0,9144]},{"type":"Point","id":200010,"properties":{"state":"Alaska","score":80,"leaid":200010,"name":"Aleutian Region School District","stabb":"AK"},"coordinates":[1597,9052]},{"type":"Point","id":200020,"properties":{"state":"Alaska","score":80,"leaid":200020,"name":"Bering Strait School District","stabb":"AK"},"coordinates":[488,9749]},{"type":"Point","id":200030,"properties":{"state":"Alaska","score":80,"leaid":200030,"name":"Bristol Bay Borough School District","stabb":"AK"},"coordinates":[872,8422]},{"type":"Point","id":200050,"properties":{"state":"Alaska","score":80,"leaid":200050,"name":"Alaska Gateway School District","stabb":"AK"},"coordinates":[2337,9604]},{"type":"Point","id":200060,"properties":{"state":"Alaska","score":80,"leaid":200060,"name":"Cordova City School District","stabb":"AK"},"coordinates":[2016,8889]},{"type":"Point","id":200070,"properties":{"state":"Alaska","score":80,"leaid":200070,"name":"Copper River School District","stabb":"AK"},"coordinates":[2039,9294]},{"type":"Point","id":200090,"properties":{"state":"Alaska","score":80,"leaid":200090,"name":"Craig City School District","stabb":"AK"},"coordinates":[3300,7584]},{"type":"Point","id":200100,"properties":{"state":"Alaska","score":80,"leaid":200100,"name":"Delta/Greely School District","stabb":"AK"},"coordinates":[2020,9793]},{"type":"Point","id":200120,"properties":{"state":"Alaska","score":80,"leaid":200120,"name":"Dillingham City School District","stabb":"AK"},"coordinates":[724,8501]},{"type":"Point","id":200130,"properties":{"state":"Alaska","score":80,"leaid":200130,"name":"Galena City School District","stabb":"AK"},"coordinates":[886,9977]},{"type":"Point","id":3014700,"properties":{"state":"Montana","score":80,"leaid":3014700,"name":"Huntley Project K-12 Schools","stabb":"MT"},"coordinates":[5838,5124]},{"type":"Point","id":3014760,"properties":{"state":"Montana","score":80,"leaid":3014760,"name":"Hysham K-12 Schools","stabb":"MT"},"coordinates":[5933,5210]},{"type":"Point","id":3016710,"properties":{"state":"Montana","score":80,"leaid":3016710,"name":"Lima K-12 Schools","stabb":"MT"},"coordinates":[5388,4782]},{"type":"Point","id":3016810,"properties":{"state":"Montana","score":80,"leaid":3016810,"name":"Lincoln K-12 Schools","stabb":"MT"},"coordinates":[5380,5381]},{"type":"Point","id":3017580,"properties":{"state":"Montana","score":80,"leaid":3017580,"name":"Malta K-12 Schools","stabb":"MT"},"coordinates":[5868,5741]},{"type":"Point","id":3018170,"properties":{"state":"Montana","score":80,"leaid":3018170,"name":"Medicine Lake K-12 Schools","stabb":"MT"},"coordinates":[6211,5781]},{"type":"Point","id":3028020,"properties":{"state":"Montana","score":80,"leaid":3028020,"name":"Wibaux K-12 Schools","stabb":"MT"},"coordinates":[6242,5390]},{"type":"Point","id":3019170,"properties":{"state":"Montana","score":80,"leaid":3019170,"name":"Nashua K-12 Schools","stabb":"MT"},"coordinates":[6022,5686]},{"type":"Point","id":3019740,"properties":{"state":"Montana","score":80,"leaid":3019740,"name":"Opheim K-12 Schools","stabb":"MT"},"coordinates":[6016,5872]},{"type":"Point","id":3020960,"properties":{"state":"Montana","score":80,"leaid":3020960,"name":"Plentywood K-12 Schools","stabb":"MT"},"coordinates":[6205,5851]},{"type":"Point","id":3021000,"properties":{"state":"Montana","score":80,"leaid":3021000,"name":"Plevna K-12 Schools","stabb":"MT"},"coordinates":[6209,5242]},{"type":"Point","id":3007410,"properties":{"state":"Montana","score":80,"leaid":3007410,"name":"Corvallis K-12 Schools","stabb":"MT"},"coordinates":[5233,5216]},{"type":"Point","id":3022710,"properties":{"state":"Montana","score":80,"leaid":3022710,"name":"Roberts K-12 Schools","stabb":"MT"},"coordinates":[5736,4969]},{"type":"Point","id":3023160,"properties":{"state":"Montana","score":80,"leaid":3023160,"name":"Roy K-12 Schools","stabb":"MT"},"coordinates":[5758,5478]},{"type":"Point","id":3023340,"properties":{"state":"Montana","score":80,"leaid":3023340,"name":"Ryegate K-12 Schools","stabb":"MT"},"coordinates":[5727,5211]},{"type":"Point","id":5604510,"properties":{"state":"Wyoming","score":97,"leaid":5604510,"name":"Natrona County School District 1","stabb":"WY"},"coordinates":[6024,4324]},{"type":"Point","id":5601980,"properties":{"state":"Wyoming","score":97,"leaid":5601980,"name":"Laramie County School District 1","stabb":"WY"},"coordinates":[6178,3881]},{"type":"Point","id":5601470,"properties":{"state":"Wyoming","score":89,"leaid":5601470,"name":"Campbell County School District 1","stabb":"WY"},"coordinates":[6107,4692]},{"type":"Point","id":5600730,"properties":{"state":"Wyoming","score":81,"leaid":5600730,"name":"Albany County School District 1","stabb":"WY"},"coordinates":[6102,3923]},{"type":"Point","id":5603770,"properties":{"state":"Wyoming","score":80,"leaid":5603770,"name":"Johnson County School District 1","stabb":"WY"},"coordinates":[5986,4708]},{"type":"Point","id":5604120,"properties":{"state":"Wyoming","score":80,"leaid":5604120,"name":"Laramie County School District 2","stabb":"WY"},"coordinates":[6255,3889]},{"type":"Point","id":5604230,"properties":{"state":"Wyoming","score":80,"leaid":5604230,"name":"Niobrara County School District 1","stabb":"WY"},"coordinates":[6215,4298]},{"type":"Point","id":5604260,"properties":{"state":"Wyoming","score":80,"leaid":5604260,"name":"Uinta County School District 6","stabb":"WY"},"coordinates":[5622,3928]},{"type":"Point","id":5604450,"properties":{"state":"Wyoming","score":80,"leaid":5604450,"name":"Fremont County School District 14","stabb":"WY"},"coordinates":[5776,4363]},{"type":"Point","id":5604830,"properties":{"state":"Wyoming","score":80,"leaid":5604830,"name":"Weston County School District 1","stabb":"WY"},"coordinates":[6241,4579]},{"type":"Point","id":5604860,"properties":{"state":"Wyoming","score":80,"leaid":5604860,"name":"Sublette County School District 1","stabb":"WY"},"coordinates":[5666,4326]},{"type":"Point","id":5605680,"properties":{"state":"Wyoming","score":80,"leaid":5605680,"name":"Sheridan County School District 3","stabb":"WY"},"coordinates":[6020,4782]},{"type":"Point","id":5605690,"properties":{"state":"Wyoming","score":80,"leaid":5605690,"name":"Sheridan County School District 1","stabb":"WY"},"coordinates":[5939,4852]},{"type":"Point","id":5605700,"properties":{"state":"Wyoming","score":80,"leaid":5605700,"name":"Fremont County School District 24","stabb":"WY"},"coordinates":[5844,4421]},{"type":"Point","id":5605820,"properties":{"state":"Wyoming","score":80,"leaid":5605820,"name":"Washakie County School District 2","stabb":"WY"},"coordinates":[5911,4627]},{"type":"Point","id":4900360,"properties":{"state":"Utah","score":98,"leaid":4900360,"name":"Granite School District","stabb":"UT"},"coordinates":[5460,3770]},{"type":"Point","id":4900720,"properties":{"state":"Utah","score":97,"leaid":4900720,"name":"Ogden School District","stabb":"UT"},"coordinates":[5452,3903]},{"type":"Point","id":4901140,"properties":{"state":"Utah","score":97,"leaid":4901140,"name":"Washington School District","stabb":"UT"},"coordinates":[5287,2838]},{"type":"Point","id":4901200,"properties":{"state":"Utah","score":97,"leaid":4901200,"name":"Weber School District","stabb":"UT"},"coordinates":[5451,3886]},{"type":"Point","id":4900030,"properties":{"state":"Utah","score":96,"leaid":4900030,"name":"Alpine School District","stabb":"UT"},"coordinates":[5469,3685]},{"type":"Point","id":4900630,"properties":{"state":"Utah","score":95,"leaid":4900630,"name":"Nebo School District","stabb":"UT"},"coordinates":[5483,3612]},{"type":"Point","id":4900120,"properties":{"state":"Utah","score":94,"leaid":4900120,"name":"Cache School District","stabb":"UT"},"coordinates":[5468,4042]},{"type":"Point","id":4900090,"properties":{"state":"Utah","score":92,"leaid":4900090,"name":"Box Elder School District","stabb":"UT"},"coordinates":[5447,3970]},{"type":"Point","id":4901050,"properties":{"state":"Utah","score":92,"leaid":4901050,"name":"Tooele School District","stabb":"UT"},"coordinates":[5414,3724]},{"type":"Point","id":4900390,"properties":{"state":"Utah","score":91,"leaid":4900390,"name":"Iron School District","stabb":"UT"},"coordinates":[5338,2981]},{"type":"Point","id":4900600,"properties":{"state":"Utah","score":89,"leaid":4900600,"name":"Murray School District","stabb":"UT"},"coordinates":[5460,3756]},{"type":"Point","id":4900810,"properties":{"state":"Utah","score":88,"leaid":4900810,"name":"Provo School District","stabb":"UT"},"coordinates":[5482,3649]},{"type":"Point","id":4900510,"properties":{"state":"Utah","score":85,"leaid":4900510,"name":"Logan School District","stabb":"UT"},"coordinates":[5465,4032]},{"type":"Point","id":4900060,"properties":{"state":"Utah","score":80,"leaid":4900060,"name":"Beaver School District","stabb":"UT"},"coordinates":[5383,3140]},{"type":"Point","id":4900180,"properties":{"state":"Utah","score":80,"leaid":4900180,"name":"Daggett School District","stabb":"UT"},"coordinates":[5679,3841]},{"type":"Point","id":4400240,"properties":{"state":"Rhode Island","score":99,"leaid":4400240,"name":"Cranston School District","stabb":"RI"},"coordinates":[9573,4044]},{"type":"Point","id":4401110,"properties":{"state":"Rhode Island","score":97,"leaid":4401110,"name":"Warwick School District","stabb":"RI"},"coordinates":[9576,4031]},{"type":"Point","id":4400840,"properties":{"state":"Rhode Island","score":96,"leaid":4400840,"name":"Pawtucket School District","stabb":"RI"},"coordinates":[9578,4070]},{"type":"Point","id":4400210,"properties":{"state":"Rhode Island","score":88,"leaid":4400210,"name":"Coventry School District","stabb":"RI"},"coordinates":[9557,4024]},{"type":"Point","id":4400270,"properties":{"state":"Rhode Island","score":88,"leaid":4400270,"name":"Cumberland School District","stabb":"RI"},"coordinates":[9571,4092]},{"type":"Point","id":4401200,"properties":{"state":"Rhode Island","score":88,"leaid":4401200,"name":"Woonsocket School District","stabb":"RI"},"coordinates":[9565,4102]},{"type":"Point","id":4400065,"properties":{"state":"Rhode Island","score":85,"leaid":4400065,"name":"Bristol-Warren Regional School District","stabb":"RI"},"coordinates":[9589,4017]},{"type":"Point","id":4400780,"properties":{"state":"Rhode Island","score":85,"leaid":4400780,"name":"North Providence School District","stabb":"RI"},"coordinates":[9568,4065]},{"type":"Point","id":4400810,"properties":{"state":"Rhode Island","score":80,"leaid":4400810,"name":"North Smithfield School District","stabb":"RI"},"coordinates":[9558,4102]},{"type":"Point","id":4400690,"properties":{"state":"Rhode Island","score":80,"leaid":4400690,"name":"New Shoreham School District","stabb":"RI"},"coordinates":[9560,3886]},{"type":"Point","id":4400960,"properties":{"state":"Rhode Island","score":79,"leaid":4400960,"name":"Scituate School District","stabb":"RI"},"coordinates":[9557,4058]},{"type":"Point","id":4401050,"properties":{"state":"Rhode Island","score":79,"leaid":4401050,"name":"Tiverton School District","stabb":"RI"},"coordinates":[9600,4006]},{"type":"Point","id":4401020,"properties":{"state":"Rhode Island","score":78,"leaid":4401020,"name":"South Kingstown School District","stabb":"RI"},"coordinates":[9564,3962]},{"type":"Point","id":4400090,"properties":{"state":"Rhode Island","score":77,"leaid":4400090,"name":"Burrillville School District","stabb":"RI"},"coordinates":[9555,4097]},{"type":"Point","id":4400630,"properties":{"state":"Rhode Island","score":77,"leaid":4400630,"name":"Middletown School District","stabb":"RI"},"coordinates":[9587,3982]},{"type":"Point","id":2400120,"properties":{"state":"Maryland","score":99,"leaid":2400120,"name":"Baltimore County Public Schools","stabb":"MD"},"coordinates":[9044,3431]},{"type":"Point","id":2400330,"properties":{"state":"Maryland","score":99,"leaid":2400330,"name":"Frederick County Public Schools","stabb":"MD"},"coordinates":[8966,3433]},{"type":"Point","id":2400390,"properties":{"state":"Maryland","score":99,"leaid":2400390,"name":"Harford County Public Schools","stabb":"MD"},"coordinates":[9073,3465]},{"type":"Point","id":2400060,"properties":{"state":"Maryland","score":99,"leaid":2400060,"name":"Anne Arundel County Public Schools","stabb":"MD"},"coordinates":[9052,3321]},{"type":"Point","id":2400600,"properties":{"state":"Maryland","score":98,"leaid":2400600,"name":"St. Marys County Public Schools","stabb":"MD"},"coordinates":[9043,3147]},{"type":"Point","id":2400690,"properties":{"state":"Maryland","score":98,"leaid":2400690,"name":"Wicomico County Public Schools","stabb":"MD"},"coordinates":[9151,3163]},{"type":"Point","id":2400210,"properties":{"state":"Maryland","score":98,"leaid":2400210,"name":"Carroll County Public Schools","stabb":"MD"},"coordinates":[9008,3475]},{"type":"Point","id":2400150,"properties":{"state":"Maryland","score":97,"leaid":2400150,"name":"Calvert County Public Schools","stabb":"MD"},"coordinates":[9050,3211]},{"type":"Point","id":2400270,"properties":{"state":"Maryland","score":97,"leaid":2400270,"name":"Charles County Public Schools","stabb":"MD"},"coordinates":[9012,3209]},{"type":"Point","id":2400420,"properties":{"state":"Maryland","score":97,"leaid":2400420,"name":"Howard County Public Schools","stabb":"MD"},"coordinates":[9018,3388]},{"type":"Point","id":2400510,"properties":{"state":"Maryland","score":97,"leaid":2400510,"name":"Prince George's County Public Schools","stabb":"MD"},"coordinates":[9031,3279]},{"type":"Point","id":2400660,"properties":{"state":"Maryland","score":97,"leaid":2400660,"name":"Washington County Public Schools","stabb":"MD"},"coordinates":[8934,3489]},{"type":"Point","id":2400240,"properties":{"state":"Maryland","score":97,"leaid":2400240,"name":"Cecil County Public Schools","stabb":"MD"},"coordinates":[9126,3485]},{"type":"Point","id":2400480,"properties":{"state":"Maryland","score":96,"leaid":2400480,"name":"Montgomery County Public Schools","stabb":"MD"},"coordinates":[8991,3351]},{"type":"Point","id":2400540,"properties":{"state":"Maryland","score":96,"leaid":2400540,"name":"Queen Annes County Public Schools","stabb":"MD"},"coordinates":[9102,3339]},{"type":"Point","id":3200480,"properties":{"state":"Nevada","score":99,"leaid":3200480,"name":"Washoe County School District","stabb":"NV"},"coordinates":[4654,3465]},{"type":"Point","id":3200390,"properties":{"state":"Nevada","score":95,"leaid":3200390,"name":"Carson City School District","stabb":"NV"},"coordinates":[4657,3369]},{"type":"Point","id":3200090,"properties":{"state":"Nevada","score":95,"leaid":3200090,"name":"Douglas County School District","stabb":"NV"},"coordinates":[4658,3315]},{"type":"Point","id":3200120,"properties":{"state":"Nevada","score":93,"leaid":3200120,"name":"Elko County School District","stabb":"NV"},"coordinates":[5066,3802]},{"type":"Point","id":3200300,"properties":{"state":"Nevada","score":92,"leaid":3200300,"name":"Lyon County School District","stabb":"NV"},"coordinates":[4720,3325]},{"type":"Point","id":3200360,"properties":{"state":"Nevada","score":87,"leaid":3200360,"name":"Nye County School District","stabb":"NV"},"coordinates":[4914,3093]},{"type":"Point","id":3200450,"properties":{"state":"Nevada","score":80,"leaid":3200450,"name":"Storey County School District","stabb":"NV"},"coordinates":[4670,3407]},{"type":"Point","id":3200150,"properties":{"state":"Nevada","score":80,"leaid":3200150,"name":"Esmeralda County School District","stabb":"NV"},"coordinates":[4916,2994]},{"type":"Point","id":3200270,"properties":{"state":"Nevada","score":80,"leaid":3200270,"name":"Lincoln County School District","stabb":"NV"},"coordinates":[5206,3015]},{"type":"Point","id":3200240,"properties":{"state":"Nevada","score":80,"leaid":3200240,"name":"Lander County School District","stabb":"NV"},"coordinates":[4946,3749]},{"type":"Point","id":3200180,"properties":{"state":"Nevada","score":80,"leaid":3200180,"name":"Eureka County School District","stabb":"NV"},"coordinates":[5046,3458]},{"type":"Point","id":3200330,"properties":{"state":"Nevada","score":80,"leaid":3200330,"name":"Mineral County School District","stabb":"NV"},"coordinates":[4775,3204]},{"type":"Point","id":3200420,"properties":{"state":"Nevada","score":79,"leaid":3200420,"name":"Pershing County School District","stabb":"NV"},"coordinates":[4789,3632]},{"type":"Point","id":3200510,"properties":{"state":"Nevada","score":79,"leaid":3200510,"name":"White Pine County School District","stabb":"NV"},"coordinates":[5157,3394]},{"type":"Point","id":3200210,"properties":{"state":"Nevada","score":76,"leaid":3200210,"name":"Humboldt County School District","stabb":"NV"},"coordinates":[4866,3837]},{"type":"Point","id":1001300,"properties":{"state":"Delaware","score":99,"leaid":1001300,"name":"Red Clay Consolidated School District","stabb":"DE"},"coordinates":[9149,3519]},{"type":"Point","id":1001240,"properties":{"state":"Delaware","score":98,"leaid":1001240,"name":"Brandywine School District","stabb":"DE"},"coordinates":[9162,3534]},{"type":"Point","id":1000230,"properties":{"state":"Delaware","score":97,"leaid":1000230,"name":"Colonial School District","stabb":"DE"},"coordinates":[9151,3502]},{"type":"Point","id":1000180,"properties":{"state":"Delaware","score":96,"leaid":1000180,"name":"Caesar Rodney School District","stabb":"DE"},"coordinates":[9154,3358]},{"type":"Point","id":1000190,"properties":{"state":"Delaware","score":94,"leaid":1000190,"name":"Capital School District","stabb":"DE"},"coordinates":[9155,3368]},{"type":"Point","id":1000170,"properties":{"state":"Delaware","score":92,"leaid":1000170,"name":"Cape Henlopen School District","stabb":"DE"},"coordinates":[9195,3264]},{"type":"Point","id":1000270,"properties":{"state":"Delaware","score":80,"leaid":1000270,"name":"Delmar School District","stabb":"DE"},"coordinates":[9153,3187]},{"type":"Point","id":1001620,"properties":{"state":"Delaware","score":79,"leaid":1001620,"name":"Smyrna School District","stabb":"DE"},"coordinates":[9149,3405]},{"type":"Point","id":1001850,"properties":{"state":"Delaware","score":78,"leaid":1001850,"name":"Woodbridge School District","stabb":"DE"},"coordinates":[9150,3265]},{"type":"Point","id":1001530,"properties":{"state":"Delaware","score":72,"leaid":1001530,"name":"Seaford School District","stabb":"DE"},"coordinates":[9148,3235]},{"type":"Point","id":1000790,"properties":{"state":"Delaware","score":65,"leaid":1000790,"name":"Lake Forest School District","stabb":"DE"},"coordinates":[9154,3324]},{"type":"Point","id":1001080,"properties":{"state":"Delaware","score":64,"leaid":1001080,"name":"Milford School District","stabb":"DE"},"coordinates":[9166,3302]}]}},"arcs":[],"transform":{"scale":[0.009835174617461745,0.00387314101410141],"translate":[-165.5846,26.114631]}}